[
  {"id":"416c50dc-75fc-4a82-aacb-fbd980851f06","name":"Points North Landing","countryCode":"CA","code":"YNL","timezone":"America/Regina","latitude":58.275,"longitude":-104.08111},
  {"id":"d6e6dab9-4421-45fb-9ed5-2e14d2d48247","name":"Beloreck","countryCode":"RU","code":"BCX","timezone":"Asia/Yekaterinburg","latitude":53.933334,"longitude":58.333332},
  {"id":"7303a168-7293-4361-9775-32e2e830097a","name":"Yalumet","countryCode":"PG","code":"KYX","timezone":"Pacific/Port_Moresby","latitude":-6.183333,"longitude":147.01666},
  {"id":"0741b53f-32e3-48f8-9860-de873103815a","name":"Mongu","countryCode":"ZM","code":"MNR","timezone":"Africa/Lusaka","latitude":-15.225556,"longitude":23.157778},
  {"id":"68cb2cbb-d404-4b66-ad30-bcd5c2acac9b","name":"St Anthony","countryCode":"CA","code":"YAY","timezone":"America/St_Johns","latitude":51.36667,"longitude":-55.583332},
  {"id":"6d580e17-0ffc-4bc4-bacf-0bbecf7c6d21","name":"George Town","countryCode":"BS","code":"GGT","timezone":"America/Nassau","latitude":23.564018,"longitude":-75.872475},
  {"id":"a6f977d4-87bb-4f63-9b11-f008a25a62a6","name":"Waingapu","countryCode":"ID","code":"WGP","timezone":"Asia/Makassar","latitude":-9.666667,"longitude":120.3},
  {"id":"04831868-5573-4f31-a451-e4425f465dd6","name":"Memanbetsu","countryCode":"JP","code":"MMB","timezone":"Asia/Tokyo","latitude":43.9,"longitude":144.16722},
  {"id":"8e0e3be2-99b8-4e79-ae33-5ff52f41dbc5","name":"Tabuk","countryCode":"SA","code":"TUU","timezone":"Asia/Riyadh","latitude":28.375784,"longitude":36.608288},
  {"id":"8c48faeb-2af2-4758-b7ce-360a73b9f729","name":"Staniel Cay","countryCode":"BS","code":"TYM","timezone":"America/Nassau","latitude":24.15,"longitude":-76.433334},
  {"id":"7e2845f2-07bf-48b9-9468-bbe5bd4b1adf","name":"Dole","countryCode":"FR","code":"DLE","timezone":"Europe/Paris","latitude":47.05,"longitude":5.433333},
  {"id":"50f7eac6-e145-4d40-a34f-c5f8c701607a","name":"Placerville","countryCode":"US","code":"PVF","timezone":"America/Los_Angeles","latitude":38.716667,"longitude":-120.8},
  {"id":"c10521bb-a6ef-4107-9dac-89b789c8d026","name":"Kambuaya","countryCode":"ID","code":"KBX","timezone":"Asia/Jayapura","latitude":-1,"longitude":132.25},
  {"id":"f1a6bb38-3e15-4faa-a4aa-6667289ac9f1","name":"Barinas","countryCode":"VE","code":"BNS","timezone":"America/Caracas","latitude":8.618056,"longitude":-70.22111},
  {"id":"53dcf216-5283-41ba-aacb-69e2e5f6f454","name":"Margaret River Station","countryCode":"AU","code":"MGV","timezone":"Australia/Perth","latitude":-18.616667,"longitude":126.86667},
  {"id":"729b6fdb-acc1-4527-a47e-ab71126a2435","name":"Luzamba","countryCode":"AO","code":"LZM","timezone":"Africa/Luanda","latitude":-9.05,"longitude":18.083332},
  {"id":"ee2c5f30-8984-4eca-9f9d-24da1d9b5fb3","name":"Wiluna","countryCode":"AU","code":"WUN","timezone":"Australia/Perth","latitude":-26.633333,"longitude":120.21667},
  {"id":"4c0fdfa8-59b9-4ba5-a720-9b381d8e1d31","name":"Shushenskoe","countryCode":"RU","code":"ШУШ","timezone":"Asia/Krasnoyarsk","latitude":53.385555,"longitude":92.04472},
  {"id":"8f6c9f7c-791d-4809-9e47-715931ae19a0","name":"Aranuka","countryCode":"KI","code":"AAK","timezone":"Pacific/Tarawa","latitude":0.166667,"longitude":173.58333},
  {"id":"25d54fa0-18a8-4e2e-af03-26bb032b0de9","name":"Olokminsk","countryCode":"RU","code":"OLZ","timezone":"Asia/Yakutsk","latitude":60.36667,"longitude":120.416664},
  {"id":"56cf8182-26c5-45bc-8acd-e92da10ce4a9","name":"Weipa","countryCode":"AU","code":"WEI","timezone":"Australia/Brisbane","latitude":-12.681317,"longitude":141.9247},
  {"id":"43a90d82-0e91-4c09-b85b-31f14a76ce1b","name":"Coronel Suarez","countryCode":"AR","code":"CSZ","timezone":"America/Argentina/Buenos_Aires","latitude":-37.433334,"longitude":-61.88333},
  {"id":"f08f00e7-5ce1-4ed2-b02f-7ae70cbf2f3b","name":"Adiyaman","countryCode":"TR","code":"ADF","timezone":"Europe/Istanbul","latitude":37.75,"longitude":38.266666},
  {"id":"f4e115d0-8962-433c-b688-bb2239fe1a3b","name":"Billiluna","countryCode":"AU","code":"BIW","timezone":"Australia/Perth","latitude":-19.566668,"longitude":127.166664},
  {"id":"d2bac09f-e35f-4f00-a61a-2034824ca972","name":"Sary","countryCode":"IR","code":"SRY","timezone":"Asia/Tehran","latitude":36.635727,"longitude":53.197277},
  {"id":"fe92db94-46ac-4862-98f5-a505a5aa28ec","name":"Atikokan","countryCode":"CA","code":"YIB","timezone":"America/Atikokan","latitude":48.75,"longitude":-91.61667},
  {"id":"fe414f2a-6f91-4832-aba1-1da9c590f7c6","name":"Deventer","countryCode":"NL","code":"QYV","timezone":"Europe/Amsterdam","latitude":52.25,"longitude":6.15},
  {"id":"cc2b7e96-92a4-436f-a1fe-b37481c0c34e","name":"El Golea","countryCode":"DZ","code":"ELG","timezone":"Africa/Algiers","latitude":30.5675,"longitude":2.864722},
  {"id":"ecf603b2-1fc2-4a00-9f97-be7f9b3329fe","name":"Ioannina","countryCode":"GR","code":"IOA","timezone":"Europe/Athens","latitude":39.696667,"longitude":20.825832},
  {"id":"2f034a92-e827-44d5-be53-05777c2b9686","name":"Kirkenes","countryCode":"NO","code":"KKN","timezone":"Europe/Oslo","latitude":69.7235,"longitude":29.891184},
  {"id":"0fe561df-e223-4f7a-be84-0d7dde05131e","name":"Blonduos","countryCode":"IS","code":"BLO","timezone":"Atlantic/Reykjavik","latitude":65.666664,"longitude":-20.3},
  {"id":"c11f6921-c07d-4914-ab2c-10493e823781","name":"Hambantota","countryCode":"LK","code":"HRI","timezone":"Asia/Colombo","latitude":6.288889,"longitude":81.12361},
  {"id":"a9afedcc-ffdc-4d0d-89c9-c58e5a954913","name":"Hsinchu","countryCode":"TW","code":"HSZ","timezone":"Asia/Taipei","latitude":24.816668,"longitude":120.933334},
  {"id":"4094f8e1-7933-45d8-9005-5e2da05d460e","name":"El Borma","countryCode":"TN","code":"EBM","timezone":"Africa/Tunis","latitude":31.716667,"longitude":9.266667},
  {"id":"d9517f5f-3528-4029-914c-8f6c4a56cc49","name":"Pijiguaos","countryCode":"VE","code":"LPJ","timezone":"America/Caracas","latitude":7,"longitude":-67.666664},
  {"id":"8b2edacb-2de6-4cce-a29e-40e361c8d287","name":"Muscle Shoals","countryCode":"US","code":"MSL","timezone":"America/Chicago","latitude":34.74861,"longitude":-87.61611},
  {"id":"94512fff-5665-4418-b5a5-57e3e43d3700","name":"Gakona","countryCode":"US","code":"GAK","timezone":"America/Anchorage","latitude":62.333332,"longitude":-145.31667},
  {"id":"57ced2b5-5d4e-44cd-b251-52e80680ae9f","name":"Armstrong","countryCode":"CA","code":"YYW","timezone":"America/Toronto","latitude":50.283333,"longitude":-89.03333},
  {"id":"037d36c3-1ee3-420f-81fd-9cc25e1f148b","name":"Lorraine","countryCode":"AU","code":"LOA","timezone":"Australia/Brisbane","latitude":-19,"longitude":139.9},
  {"id":"23c5877c-ef98-4bdd-a78e-b7f41b8e1ca4","name":"Gandajika","countryCode":"CD","code":"GDJ","timezone":"Africa/Lubumbashi","latitude":-6.766667,"longitude":23.966667},
  {"id":"2a4d0fae-9b57-4432-a57d-d56b922c334f","name":"San Juan","countryCode":"AR","code":"UAQ","timezone":"America/Argentina/San_Juan","latitude":-31.55,"longitude":-68.51667},
  {"id":"17fce2d6-75f8-4276-ab8e-ba1383bb49db","name":"Snake Bay","countryCode":"AU","code":"SNB","timezone":"Australia/Darwin","latitude":-11.416667,"longitude":130.66667},
  {"id":"5dfca8a9-88ed-4de7-b5ae-24d813f86c0a","name":"Mount Gambier","countryCode":"AU","code":"MGB","timezone":"Australia/Adelaide","latitude":-37.744072,"longitude":140.78271},
  {"id":"8919b4f6-c195-4877-bb07-b18edc48bb4f","name":"Santiago","countryCode":"PA","code":"SYP","timezone":"America/Panama","latitude":8.1,"longitude":-80.98333},
  {"id":"b5db77b6-14af-48ec-8816-b4fc73a687f9","name":"Santa Maria","countryCode":"CO","code":"SMC","timezone":"America/Bogota","latitude":8.166667,"longitude":-77.05},
  {"id":"b6ddbe54-ffc1-47b6-adb9-1db585884d61","name":"International Falls","countryCode":"US","code":"INL","timezone":"America/Chicago","latitude":48.563057,"longitude":-93.40417},
  {"id":"f5fb3580-44b2-4b19-929a-9e5f02823a08","name":"Khamti","countryCode":"MM","code":"KHM","timezone":"Asia/Rangoon","latitude":25.993513,"longitude":95.67965},
  {"id":"c3ff7e29-db08-45f4-86d8-ebe9fc747dc0","name":"Djoemoe","countryCode":"SR","code":"DOE","timezone":"America/Paramaribo","latitude":4.016667,"longitude":-55.483334},
  {"id":"1083f799-5bff-49c4-8796-5e1ff5699a41","name":"Seward","countryCode":"US","code":"SWD","timezone":"America/Anchorage","latitude":60.13333,"longitude":-149.41806},
  {"id":"b55812ef-cab0-44b5-8f0c-2e80f48c4be4","name":"Joacaba","countryCode":"BR","code":"JCB","timezone":"America/Sao_Paulo","latitude":-27.166668,"longitude":-51.516666},
  {"id":"0e8a8c5e-3f3e-48ca-8ca7-e0fd86a16c20","name":"Tingo Maria","countryCode":"PE","code":"TGI","timezone":"America/Lima","latitude":-9.3,"longitude":-76.01667},
  {"id":"500ad21b-2768-41b9-a219-73897fba87bc","name":"Santarem","countryCode":"BR","code":"STM","timezone":"America/Santarem","latitude":-2.424886,"longitude":-54.78639},
  {"id":"27572c57-5178-4b4a-b8fa-137bf64c40f0","name":"Baishan","countryCode":"CN","code":"NBS","timezone":"Asia/Shanghai","latitude":42.083332,"longitude":127.6},
  {"id":"a1122bfc-e04a-4099-a75d-8ccf1302f210","name":"Makkah","countryCode":"SA","code":"QCA","timezone":"Asia/Riyadh","latitude":21.5,"longitude":41},
  {"id":"57f8dbd7-2e88-4934-9be5-914dd1063a0e","name":"Kinoosao","countryCode":"CA","code":"KNY","timezone":"America/Regina","latitude":57.066666,"longitude":-102.03333},
  {"id":"2b6971b7-4d12-4c2c-be5d-812001ea1d14","name":"Vatomandry","countryCode":"MG","code":"VAT","timezone":"Indian/Antananarivo","latitude":-19.283333,"longitude":48.833332},
  {"id":"a00ff34a-5e04-459b-bd95-646c1db77375","name":"Chifeng","countryCode":"CN","code":"CIF","timezone":"Asia/Shanghai","latitude":42.237392,"longitude":118.91089},
  {"id":"ac9c9b76-b75d-4936-ab6e-2196fc490c79","name":"Chiquimula","countryCode":"GT","code":"CIQ","timezone":"America/Guatemala","latitude":14.85,"longitude":-89.61667},
  {"id":"1b5b74f3-31b6-461d-a1a1-e21d7217328b","name":"Regensburg","countryCode":"DE","code":"ZPM","timezone":"Europe/Berlin","latitude":49.01667,"longitude":12.08333},
  {"id":"ee8650d4-e0a6-4d98-8fb0-6b11c5512050","name":"Tabas","countryCode":"IR","code":"TCX","timezone":"Asia/Tehran","latitude":33.68,"longitude":56.90139},
  {"id":"ed88e06b-10f2-43ab-8e11-016d77c44d59","name":"Socotra","countryCode":"YE","code":"SCT","timezone":"Asia/Aden","latitude":12.627546,"longitude":53.909245},
  {"id":"950ab8b3-2a76-4801-b1c4-759b961d23d5","name":"Bahar Dar","countryCode":"ET","code":"BJR","timezone":"Africa/Addis_Ababa","latitude":11.603292,"longitude":37.32324},
  {"id":"6555e4ba-da21-4fb4-8565-95977136cced","name":"Hamilton Island","countryCode":"AU","code":"HTI","timezone":"Australia/Lindeman","latitude":-20.35175,"longitude":148.94847},
  {"id":"b26f4582-bcaa-41a1-a256-91719251c96d","name":"Sara","countryCode":"VU","code":"SSR","timezone":"Pacific/Efate","latitude":-15.5,"longitude":168.3},
  {"id":"0f7a77f5-7332-45c1-ae52-d6c3ce6b7e81","name":"Lubumbashi","countryCode":"CD","code":"FBM","timezone":"Africa/Lubumbashi","latitude":-11.590833,"longitude":27.529167},
  {"id":"841cf125-a89f-4cc0-aa45-5567907b04ba","name":"Pangia","countryCode":"PG","code":"PGN","timezone":"Pacific/Port_Moresby","latitude":-6.3,"longitude":144.2},
  {"id":"8cdd93af-de5e-479b-8a0f-6ab915c4dab9","name":"Dalat","countryCode":"VN","code":"DLI","timezone":"Asia/Ho_Chi_Minh","latitude":11.749689,"longitude":108.37603},
  {"id":"ad393e1a-21cc-42ff-a845-4f0dcfec6860","name":"Fayetteville","countryCode":"US","code":"FYV","timezone":"America/Chicago","latitude":36.06258,"longitude":-94.157425},
  {"id":"a9ee6580-245b-4ea5-a773-4f3e1e688925","name":"Cube Cove","countryCode":"US","code":"CUW","timezone":"America/Juneau","latitude":57.941666,"longitude":-134.75},
  {"id":"c56165f3-fb6e-4791-9038-d8cf79ceb23f","name":"Cuiaba","countryCode":"BR","code":"CGB","timezone":"America/Cuiaba","latitude":-15.651725,"longitude":-56.120266},
  {"id":"5b3d9011-d7ff-42e7-a96e-ab6bd9c309dd","name":"Pug-Jug","countryCode":"RU","code":"ПУГ","timezone":"Asia/Yekaterinburg","latitude":61.008057,"longitude":79.89222},
  {"id":"0f5c6f70-27e5-4ee0-a85c-f32a0f568f3b","name":"Destin","countryCode":"US","code":"DSI","timezone":"America/Chicago","latitude":30.383333,"longitude":-86.5},
  {"id":"566e5018-1a01-45dc-9114-86839d7ac24e","name":"Baramita","countryCode":"GY","code":"BMJ","timezone":"America/Guyana","latitude":6.75,"longitude":-60},
  {"id":"aa9d6743-2f81-459e-b317-dfb5ffa7dd29","name":"Oudtshoorn","countryCode":"ZA","code":"OUH","timezone":"Africa/Johannesburg","latitude":-33.603333,"longitude":22.188334},
  {"id":"841f3d65-d0d2-4f3b-bede-de5cde20ab7a","name":"Arboletes","countryCode":"CO","code":"ARO","timezone":"America/Bogota","latitude":8.85,"longitude":-76.433334},
  {"id":"f5386c11-a3cd-4d14-88fe-ec8f20d00a97","name":"Flen","countryCode":"SE","code":"XYI","timezone":"Europe/Stockholm","latitude":59.05,"longitude":16.58333},
  {"id":"91098e39-f078-4f68-a429-0ff12699e456","name":"Melchor De Menco","countryCode":"GT","code":"MCR","timezone":"America/Guatemala","latitude":17,"longitude":-92.00833},
  {"id":"1c8d3156-76a8-4623-ba9c-3b21d2e9af19","name":"Princeton","countryCode":"US","code":"BLF","timezone":"America/New_York","latitude":37.295834,"longitude":-81.20805},
  {"id":"ddf299bd-99d6-4c57-bc0b-a003c4103161","name":"Havre St Pierre","countryCode":"CA","code":"YGV","timezone":"America/Montreal","latitude":50.25,"longitude":-63.583332},
  {"id":"f955dac2-a961-413c-9074-7a11ba8a8a15","name":"Olanchito","countryCode":"HN","code":"OAN","timezone":"America/Tegucigalpa","latitude":15.504444,"longitude":-86.57472},
  {"id":"99eb715b-f3f6-44b8-a230-5cb48bdbd55e","name":"Hana","countryCode":"US","code":"HNM","timezone":"Pacific/Honolulu","latitude":20.795834,"longitude":-156.01889},
  {"id":"451594f0-7f6d-4280-aff6-cc0bc8d72928","name":"Soelden","countryCode":"AT","code":"XOO","timezone":"Europe/Vienna","latitude":46.96667,"longitude":11},
  {"id":"4136cc71-55bc-4e5a-8891-e598f823bfe4","name":"Magdagachi","countryCode":"RU","code":"GDG","timezone":"Asia/Yakutsk","latitude":53.466667,"longitude":125.8},
  {"id":"af0e612c-1605-436f-9164-83f228bc69ca","name":"Tak","countryCode":"TH","code":"TKT","timezone":"Asia/Bangkok","latitude":16.878332,"longitude":99.15222},
  {"id":"37b0b9e4-0aa8-4b2a-93ce-222e13aa1ca8","name":"Chipata","countryCode":"ZM","code":"CIP","timezone":"Africa/Lusaka","latitude":-13.556944,"longitude":32.587223},
  {"id":"a1fb04cc-f946-4ea1-ad18-9dc16064d4ab","name":"Palanga","countryCode":"LT","code":"PLQ","timezone":"Europe/Vilnius","latitude":55.7075,"longitude":21.14278},
  {"id":"9c95d7a7-3e0a-4e7b-957c-be2cb4fb0c25","name":"Midgard","countryCode":"NA","code":"MQG","timezone":"Africa/Windhoek","latitude":-22.083332,"longitude":17.366667},
  {"id":"ac57c575-fb0d-4c47-b676-071f0d4278bc","name":"Vennesla","countryCode":"NO","code":"XXE","timezone":"Europe/Oslo","latitude":58.26889,"longitude":7.97083},
  {"id":"1109d8d6-9e13-472e-95d2-288ffda41ff7","name":"Somerset","countryCode":"US","code":"SME","timezone":"America/New_York","latitude":37.083332,"longitude":-84.6},
  {"id":"bb18a1a6-b3de-4632-8f8b-47ee2c5e1733","name":"Croker Island","countryCode":"AU","code":"CKI","timezone":"Australia/Darwin","latitude":-11.2,"longitude":132.53334},
  {"id":"694ae0f9-4ed0-4806-ad31-7ad98383e368","name":"Moses Point","countryCode":"US","code":"MOS","timezone":"America/Anchorage","latitude":64.69556,"longitude":-162.04333},
  {"id":"3ed8daa4-a1b0-4817-b3fc-a3f153feca65","name":"Lewisburg","countryCode":"US","code":"LWB","timezone":"America/New_York","latitude":37.859722,"longitude":-80.39861},
  {"id":"b97923b4-fb23-4b46-8f1d-ee29c11189f7","name":"Kanabea","countryCode":"PG","code":"KEX","timezone":"Pacific/Port_Moresby","latitude":-7.483333,"longitude":145.91667},
  {"id":"7afb82bd-8889-4323-9de1-45abdc972e4e","name":"Zaria","countryCode":"NG","code":"ZAR","timezone":"Africa/Lagos","latitude":11,"longitude":7.666667},
  {"id":"e7a02263-a4de-416e-abd7-3a952946cbfe","name":"Hoedspruit","countryCode":"ZA","code":"HDS","timezone":"Africa/Johannesburg","latitude":-24.35,"longitude":30.95},
  {"id":"6d121628-ef5e-4609-b3fa-aeb880e5a69d","name":"Cat Cays","countryCode":"BS","code":"CXY","timezone":"America/Nassau","latitude":25.416668,"longitude":-77.816666},
  {"id":"50852419-7ef9-465a-aec7-bfcdf5c5b311","name":"Severo-Eniseyskiy","countryCode":"RU","code":"СЕН","timezone":"Asia/Krasnoyarsk","latitude":60.373333,"longitude":93.01667},
  {"id":"058e7942-b141-43dd-ae0a-aa1fc2265690","name":"Tolu","countryCode":"CO","code":"TLU","timezone":"America/Bogota","latitude":9.516667,"longitude":-75.583336},
  {"id":"f62cfaa9-93e5-4e79-b294-8fd5a79082eb","name":"Leicester","countryCode":"GB","code":"QEW","timezone":"Europe/London","latitude":52.632,"longitude":-1.124},
  {"id":"adeb2ec6-272b-41f5-9f81-91e840b298f4","name":"Mulga Park","countryCode":"AU","code":"MUP","timezone":"Australia/Darwin","latitude":-31.133333,"longitude":141.05},
  {"id":"274e4195-fa91-4dad-af26-b30809773cd3","name":"Fluelen","countryCode":"CH","code":"ZHD","timezone":"Europe/Zurich","latitude":46.89972,"longitude":8.62361},
  {"id":"eb70fa0c-a050-4743-97da-5dbb60067609","name":"Siirt","countryCode":"TR","code":"SXZ","timezone":"Europe/Istanbul","latitude":37.98,"longitude":41.84},
  {"id":"22d0cb12-6ba1-4c1d-b1b3-f635cd09ae68","name":"Emae","countryCode":"VU","code":"EAE","timezone":"Pacific/Efate","latitude":-17.166668,"longitude":168.41667},
  {"id":"f0394a3c-4ca3-4829-89ad-c7f25f46befe","name":"Tasikmalaya","countryCode":"ID","code":"TSY","timezone":"Asia/Jakarta","latitude":-7.3,"longitude":108.2},
  {"id":"0d3473fe-2d87-428c-a875-ca2022dea468","name":"Bocas Del Toro","countryCode":"PA","code":"BOC","timezone":"America/Panama","latitude":9.34,"longitude":-82.251945},
  {"id":"469d2d37-1fef-407f-bc81-a4c637723deb","name":"Urubupunga","countryCode":"BR","code":"URB","timezone":"America/Sao_Paulo","latitude":-20.783333,"longitude":-51.566666},
  {"id":"14eef033-7cc6-4955-b21f-d68dd46845f9","name":"Pine Cay","countryCode":"TC","code":"PIC","timezone":"America/Grand_Turk","latitude":21.883333,"longitude":-72.1},
  {"id":"e487cd0d-01f8-4bac-82de-213cb7ef1964","name":"Buffalo","countryCode":"US","code":"BUF","timezone":"America/New_York","latitude":42.886448,"longitude":-78.87837},
  {"id":"0be6f3d1-39bd-4a01-9d91-7c63d51b0c6c","name":"Windhoek","countryCode":"NA","code":"WDH","timezone":"Africa/Windhoek","latitude":-22.558905,"longitude":17.082481},
  {"id":"68816670-7607-4db5-8deb-be9414f21fc5","name":"Kristinehamn","countryCode":"SE","code":"XYN","timezone":"Europe/Stockholm","latitude":59.30944,"longitude":14.10583},
  {"id":"7d443904-4b0a-466e-979b-37f39668a889","name":"Nyngan","countryCode":"AU","code":"NYN","timezone":"Australia/Sydney","latitude":-31.566668,"longitude":147.18333},
  {"id":"91b2c99f-ef74-4d54-932b-7eb48664480e","name":"Fossil Downs","countryCode":"AU","code":"FSL","timezone":"Australia/Perth","latitude":-18.2,"longitude":125.8},
  {"id":"d47f5129-0466-4d03-97ac-a0a5093f5a75","name":"Appleton","countryCode":"US","code":"ATW","timezone":"America/Chicago","latitude":44.26011,"longitude":-88.50994},
  {"id":"cebbe1cd-0b69-4713-ac3a-dd8d1f78b168","name":"Ulei","countryCode":"VU","code":"ULB","timezone":"Pacific/Efate","latitude":-16.416668,"longitude":168.33333},
  {"id":"ce6d1fc1-735d-411d-847a-1f586f22fbf3","name":"Cradock","countryCode":"ZA","code":"CDO","timezone":"Africa/Johannesburg","latitude":-32.13333,"longitude":25.6},
  {"id":"03d60956-6974-4b29-a0b6-7c4e006fc5ba","name":"Hurghada","countryCode":"EG","code":"HRG","timezone":"Africa/Cairo","latitude":27.189156,"longitude":33.8055},
  {"id":"d3be4151-f81d-4fbc-8b40-ff310d3e26b5","name":"Isla Mujeres","countryCode":"MX","code":"ISJ","timezone":"America/Cancun","latitude":21.266666,"longitude":-86.75},
  {"id":"1bc2f472-7710-4812-8b2f-acad8cb7de4e","name":"Scribner","countryCode":"US","code":"SCB","timezone":"America/Chicago","latitude":41.65,"longitude":-96.666664},
  {"id":"e690670b-5abf-4a1a-ac44-37ede9654ae6","name":"Silistra","countryCode":"BG","code":"SLS","timezone":"Europe/Sofia","latitude":44.05639,"longitude":27.180555},
  {"id":"a4c50d59-0760-467f-a7d9-6a6e79b91b84","name":"Gbadolite","countryCode":"CD","code":"BDT","timezone":"Africa/Kinshasa","latitude":4.083333,"longitude":22.45},
  {"id":"1e29771b-86b4-4cf6-ae68-62ded948fd29","name":"Airlie Beach","countryCode":"AU","code":"WSY","timezone":"Australia/Brisbane","latitude":-20.502777,"longitude":148.75278},
  {"id":"71e2339a-e7e0-40dc-b7b9-a699a1b330b5","name":"Ramsar","countryCode":"IR","code":"RZR","timezone":"Asia/Tehran","latitude":36.904625,"longitude":50.68244},
  {"id":"925abacc-f018-48b7-b7eb-de684367848b","name":"Gombe","countryCode":"NG","code":"GMO","timezone":"Africa/Lagos","latitude":10.298056,"longitude":10.898889},
  {"id":"90f7f068-dae0-4501-84b7-683a86204fd3","name":"El Banco","countryCode":"CO","code":"ELB","timezone":"America/Bogota","latitude":9.048889,"longitude":-73.97417},
  {"id":"acdc8bfc-9085-4661-8747-1177866434dc","name":"Svetlaya","countryCode":"RU","code":"СЕЯ","timezone":"Asia/Vladivostok","latitude":46.54111,"longitude":138.31833},
  {"id":"ee041768-96f1-4a4f-a903-829c5703f5f0","name":"Taksimo","countryCode":"RU","code":"ТИО","timezone":"Asia/Irkutsk","latitude":56.361668,"longitude":114.92722},
  {"id":"9f12b0e2-5508-4aed-aeee-473f66d53e8b","name":"Bonnyville","countryCode":"CA","code":"YBY","timezone":"America/Edmonton","latitude":54.266666,"longitude":-110.73333},
  {"id":"2cc031a7-7c34-4ae4-b14f-4f5abf8f0a90","name":"Ghinnir","countryCode":"ET","code":"GNN","timezone":"Africa/Addis_Ababa","latitude":7.15,"longitude":40.716667},
  {"id":"77e8a5f4-bd9e-4856-9f3c-87423d03f2a8","name":"Williamsport","countryCode":"US","code":"IPT","timezone":"America/New_York","latitude":41.24222,"longitude":-76.920555},
  {"id":"6f8c111e-59ea-4744-ae82-823a1aaba28a","name":"Westray","countryCode":"GB","code":"WRY","timezone":"Europe/London","latitude":59.35,"longitude":-2.95},
  {"id":"c4f5c87f-ea29-4dbf-9d27-7fa467d3d6f0","name":"Raha","countryCode":"ID","code":"RAQ","timezone":"Asia/Makassar","latitude":-4.916667,"longitude":122.583336},
  {"id":"77316f84-d277-4ad0-a553-488d1d4e5995","name":"Senhor Do Bonfim","countryCode":"BR","code":"SEI","timezone":"America/Bahia","latitude":-10.45,"longitude":-40.183334},
  {"id":"23239b0c-741b-4fba-b54c-2a870e340445","name":"Tacoma","countryCode":"US","code":"TIW","timezone":"America/Los_Angeles","latitude":47.252876,"longitude":-122.44429},
  {"id":"b8b00dc7-1b77-43ee-8b78-ada55b66cf6d","name":"Port Lincoln","countryCode":"AU","code":"PLO","timezone":"Australia/Adelaide","latitude":-34.603333,"longitude":135.87454},
  {"id":"dcb35fc2-4374-495a-96fa-8c9e2e495877","name":"Sukhumi","countryCode":"GE","code":"SUI","timezone":"Asia/Tbilisi","latitude":42.86667,"longitude":41.11667},
  {"id":"bccaabf7-946a-48f1-8935-f262f9ad657c","name":"Bujumbura","countryCode":"BI","code":"BJM","timezone":"Africa/Bujumbura","latitude":-3.383333,"longitude":29.366667},
  {"id":"3276a5fa-39a5-4549-910f-55940d4fcf01","name":"Antakya","countryCode":"TR","code":"HTY","timezone":"Europe/Istanbul","latitude":36.364544,"longitude":36.28057},
  {"id":"9dcd8ba6-b2a1-4b62-a0e7-6336b53eb99c","name":"Dimapur","countryCode":"IN","code":"DMU","timezone":"Asia/Kolkata","latitude":25.879816,"longitude":93.772865},
  {"id":"3c81b2b1-4754-417e-b2db-7fe936437085","name":"Svetly","countryCode":"RU","code":"СЛЙ","timezone":"Asia/Yekaterinburg","latitude":50.8,"longitude":60.91667},
  {"id":"f5bb83ee-f964-4e1f-8e42-53beb7fa6fe7","name":"Barrancominas","countryCode":"CO","code":"NBB","timezone":"America/Bogota","latitude":3.333333,"longitude":-70.333336},
  {"id":"6dbcd6e7-75e9-4e5f-8e1b-df6234dc456c","name":"Carajas","countryCode":"BR","code":"CKS","timezone":"America/Belem","latitude":-6.114749,"longitude":-50.001945},
  {"id":"a3b149c2-fc58-4ba5-b227-29dc049ddaa2","name":"Labasa","countryCode":"FJ","code":"LBS","timezone":"Pacific/Fiji","latitude":-16.466215,"longitude":179.33766},
  {"id":"bf66e5e6-4a48-44ee-b129-492ac4bf2423","name":"Miquelon","countryCode":"PM","code":"MQC","timezone":"America/Miquelon","latitude":47.05,"longitude":-56.333332},
  {"id":"d67b9663-9cca-4987-9a5d-dd1d59a5d635","name":"Hengelo","countryCode":"NL","code":"QYH","timezone":"Europe/Amsterdam","latitude":52.26556,"longitude":6.79306},
  {"id":"4748e7e7-7574-4189-bcf0-2f255f3532d2","name":"Tachilek","countryCode":"MM","code":"THL","timezone":"Asia/Rangoon","latitude":20.45,"longitude":99.95},
  {"id":"d9f91e08-1a3d-4742-b293-20d8f52d4450","name":"Koyukuk","countryCode":"US","code":"KYU","timezone":"America/Anchorage","latitude":64.87806,"longitude":-157.71306},
  {"id":"82633126-7d0b-418c-b213-126da1a2f4fa","name":"Pelotas","countryCode":"BR","code":"PET","timezone":"America/Sao_Paulo","latitude":-31.718056,"longitude":-52.324444},
  {"id":"bb662fbb-cb1a-4817-bb7c-1a4c28f714f0","name":"Djanet","countryCode":"DZ","code":"DJG","timezone":"Africa/Algiers","latitude":24.465279,"longitude":9.488889},
  {"id":"a32408a4-2542-46e2-a172-61a0c138eaa8","name":"Chennai","countryCode":"IN","code":"MAA","timezone":"Asia/Kolkata","latitude":12.982267,"longitude":80.16378},
  {"id":"ad7201e6-9147-462d-84a9-bdefc84dc998","name":"Ludington","countryCode":"US","code":"LDM","timezone":"America/Detroit","latitude":44.075333,"longitude":-86.479164},
  {"id":"d8f8ecf6-0e25-4ce7-8ffd-858dba73bdc0","name":"Cluny","countryCode":"AU","code":"CZY","timezone":"Australia/Brisbane","latitude":-24.516666,"longitude":139.53334},
  {"id":"0d0215b2-b772-4248-80df-f5ce8bd5999b","name":"Copan","countryCode":"HN","code":"RUY","timezone":"America/Tegucigalpa","latitude":15,"longitude":-88},
  {"id":"be8e7f5c-364d-4e8a-876a-da32a4464ef5","name":"Nafoora","countryCode":"LY","code":"NFR","timezone":"Africa/Tripoli","latitude":29.216667,"longitude":21.583332},
  {"id":"dc446b19-7184-484e-98da-8701dc7e58b6","name":"Antsohihy","countryCode":"MG","code":"WAI","timezone":"Indian/Antananarivo","latitude":-14.916667,"longitude":47.95},
  {"id":"54cdf528-737d-4db6-a707-b00bf129d689","name":"Biliau","countryCode":"PG","code":"BIJ","timezone":"Pacific/Port_Moresby","latitude":-5.583333,"longitude":146.2},
  {"id":"ca2eb5df-9e1d-4697-a72f-70eaa897da08","name":"Challis","countryCode":"US","code":"CHL","timezone":"America/Boise","latitude":44.5,"longitude":-114.25},
  {"id":"b480ff5f-db4d-4162-873f-035ff7d9c74a","name":"Casselman","countryCode":"CA","code":"XZB","timezone":"America/Toronto","latitude":45.31353,"longitude":-75.08675},
  {"id":"234fd75e-76fc-420b-b9c0-c5d88249d15d","name":"Calais","countryCode":"FR","code":"CQF","timezone":"Europe/Paris","latitude":50.95129,"longitude":1.858686},
  {"id":"b1d084ff-d246-47cf-98ad-3f3a8c7ee369","name":"Oriximina","countryCode":"BR","code":"ORX","timezone":"America/Santarem","latitude":-1.75,"longitude":-55.86667},
  {"id":"636a7a20-b5f5-4a81-867f-ffc28a782188","name":"Dolpa","countryCode":"NP","code":"DOP","timezone":"Asia/Kathmandu","latitude":29,"longitude":82.816666},
  {"id":"da39c798-56dc-4c4e-a8dc-19d6deb1f074","name":"Tandil","countryCode":"AR","code":"TDL","timezone":"America/Argentina/Buenos_Aires","latitude":-37.333332,"longitude":-59.083332},
  {"id":"35e717fc-4ceb-4eef-8d39-fd9a072cbde1","name":"Tanjung Warukin","countryCode":"ID","code":"TJG","timezone":"Asia/Jakarta","latitude":-1.4,"longitude":103.96667},
  {"id":"e216504f-12a8-4df4-9464-ff427a30fb6c","name":"Taizhou","countryCode":"CN","code":"HYN","timezone":"Asia/Shanghai","latitude":28.558096,"longitude":121.41675},
  {"id":"1e53031d-5b1a-425f-a8ab-588098449d88","name":"Marshfield","countryCode":"US","code":"MFI","timezone":"America/Chicago","latitude":44.63389,"longitude":-90.18667},
  {"id":"9282c8c5-832c-44a4-9789-842cc7214303","name":"LaForges","countryCode":"CA","code":"YLF","timezone":"America/Montreal","latitude":54.183334,"longitude":-72.48333},
  {"id":"1dc05962-f342-4257-ac6f-8858b5f5bae4","name":"Bikini Atoll","countryCode":"MH","code":"BII","timezone":"Pacific/Majuro","latitude":11.525081,"longitude":165.56512},
  {"id":"7e5b0067-d274-4e7c-86e6-9138deae4cde","name":"Trujillo","countryCode":"HN","code":"TJI","timezone":"America/Tegucigalpa","latitude":15.925833,"longitude":-85.939445},
  {"id":"15e5a80c-bc6e-47de-b7de-8c18260215b4","name":"Juneau","countryCode":"US","code":"JNU","timezone":"America/Juneau","latitude":58.35932,"longitude":-134.58339},
  {"id":"37889aff-d772-48c6-ae60-287fe6ab8f83","name":"Mons","countryCode":"BE","code":"QMO","timezone":"Europe/Brussels","latitude":50.454956,"longitude":3.95196},
  {"id":"35dad7d1-9887-4730-8388-ff226cfe02f8","name":"Ottumwa","countryCode":"US","code":"OTM","timezone":"America/Chicago","latitude":41.106388,"longitude":-92.449165},
  {"id":"be46fb73-5917-423c-91af-47cb9332ca6f","name":"Lund","countryCode":"SE","code":"XGC","timezone":"Europe/Stockholm","latitude":55.705276,"longitude":13.187222},
  {"id":"22db21c6-9e6c-4a54-bd47-877b4dbf0d13","name":"Sewanee","countryCode":"US","code":"UOS","timezone":"America/Chicago","latitude":35.183334,"longitude":-85.9},
  {"id":"9fcb0ed1-67b6-44aa-acce-54de82ad0754","name":"La Tuque","countryCode":"CA","code":"YLQ","timezone":"America/Montreal","latitude":47.5,"longitude":-72.833336},
  {"id":"78f1c725-68d5-41b0-9f33-8fc7c0f3fb8c","name":"Lablab","countryCode":"PG","code":"LAB","timezone":"Pacific/Port_Moresby","latitude":-5.633333,"longitude":148.06667},
  {"id":"60d47588-58cd-4284-8336-ec14a453e295","name":"Orenburg","countryCode":"RU","code":"REN","timezone":"Asia/Yekaterinburg","latitude":51.79105,"longitude":55.4567},
  {"id":"d9b380fe-2a9a-485c-b0b4-b3d61244d1b3","name":"Niagara Falls","countryCode":"US","code":"IAG","timezone":"America/New_York","latitude":43.1,"longitude":-78.95},
  {"id":"14cbe946-bfd7-4998-85ef-5751a5b21ed6","name":"Richlands","countryCode":"US","code":"OAJ","timezone":"America/New_York","latitude":34.83044,"longitude":-77.605835},
  {"id":"f1f1455c-eac2-4611-b64a-14c64e2db75a","name":"Johor Bharu","countryCode":"MY","code":"JHB","timezone":"Asia/Kuala_Lumpur","latitude":1.638889,"longitude":103.67083},
  {"id":"bb212833-8d98-47d6-94a1-4ab074474dc2","name":"Bromont","countryCode":"CA","code":"ZBM","timezone":"America/Montreal","latitude":45.316666,"longitude":-72.833336},
  {"id":"319db2eb-aa4a-448e-bc8e-21e185c5aab4","name":"Sherman-Denison","countryCode":"US","code":"PNX","timezone":"America/Chicago","latitude":33.63889,"longitude":-96.611115},
  {"id":"337b7a3c-e133-44c1-b15b-e6f61980153e","name":"San Carlos","countryCode":"NI","code":"NCR","timezone":"America/Managua","latitude":11.25,"longitude":-84.833336},
  {"id":"4e55a23a-de0b-4552-89e6-867c7b09f510","name":"Hoskins","countryCode":"PG","code":"HKN","timezone":"Pacific/Port_Moresby","latitude":-5.456876,"longitude":150.403},
  {"id":"518e90ca-a4dc-4f13-ba00-99ddb9a1f2d5","name":"Pamplona","countryCode":"ES","code":"PNA","timezone":"Europe/Madrid","latitude":42.81799,"longitude":-1.6441835},
  {"id":"c8c123e1-60cf-4d9e-81d5-08af832a9cf4","name":"Karonga","countryCode":"MW","code":"KGJ","timezone":"Africa/Blantyre","latitude":-9.957778,"longitude":33.892223},
  {"id":"be717596-7979-4bfa-a188-caf0763b7413","name":"Kharuta","countryCode":"RU","code":"ХАУ","timezone":"Europe/Moscow","latitude":66.85,"longitude":59.53333},
  {"id":"3372eb65-a5f8-45f2-a14d-134b748c14cf","name":"Moultrie","countryCode":"US","code":"MGR","timezone":"America/New_York","latitude":31.179909,"longitude":-83.78906},
  {"id":"5dd9873f-9dd4-406e-86e9-13c687b9e828","name":"Matsaile","countryCode":"LS","code":"MSG","timezone":"Africa/Maseru","latitude":-29.733334,"longitude":28.75},
  {"id":"fdfe0ef9-005a-47a9-b85d-2aab0e4c68c2","name":"Sidi Barani","countryCode":"EG","code":"SQK","timezone":"Africa/Cairo","latitude":31.6,"longitude":25.933332},
  {"id":"3f640d1c-9d55-4965-8ce0-352e5f28548d","name":"Greenfield","countryCode":"US","code":"GFD","timezone":"America/Indiana/Indianapolis","latitude":39.783333,"longitude":-85.76667},
  {"id":"03dd2a9b-a2ed-402e-b57c-0aca51be94be","name":"Victoria Falls","countryCode":"ZW","code":"VFA","timezone":"Africa/Harare","latitude":-18.093056,"longitude":25.840279},
  {"id":"21c1b5aa-d650-4974-b493-389bada51edc","name":"Soderhamn","countryCode":"SE","code":"SOO","timezone":"Europe/Stockholm","latitude":61.3,"longitude":17.05},
  {"id":"6abc2a95-81db-455b-baaf-434f5fbb7085","name":"Worland","countryCode":"US","code":"WRL","timezone":"America/Denver","latitude":43.9675,"longitude":-107.95306},
  {"id":"5b2cbb9c-cd7e-4d6f-89a5-45a176293f67","name":"Camfield","countryCode":"AU","code":"CFI","timezone":"Australia/Darwin","latitude":-17.033333,"longitude":131.28334},
  {"id":"92e50672-6b4e-491d-81c6-f10bf0cc8fbf","name":"Porto Alegre","countryCode":"ST","code":"PGP","timezone":"Africa/Sao_Tome","latitude":0.033333,"longitude":6.533333},
  {"id":"939f19d5-67e7-4e18-b100-29825e524b36","name":"Mvuu Camp","countryCode":"MW","code":"VUU","timezone":"Africa/Blantyre","latitude":-15.683333,"longitude":35},
  {"id":"9979fa7c-27f8-476d-8da0-2c4cacd9bc89","name":"Sharana","countryCode":"AF","code":"OAS","timezone":"Asia/Kabul","latitude":36.990734,"longitude":43.62926},
  {"id":"fb9b4eb7-0383-443e-8063-9940e47cf1f5","name":"Newton","countryCode":"US","code":"EWK","timezone":"America/Chicago","latitude":38.033333,"longitude":-97.36667},
  {"id":"ee54da82-7e32-43e0-bb12-4f2094fd0209","name":"Sarikei","countryCode":"MY","code":"TGC","timezone":"Asia/Kuching","latitude":2.176315,"longitude":111.20335},
  {"id":"1adcf3ea-0f6c-4fc0-afc0-04c3fe709d25","name":"Atsugi","countryCode":"JP","code":"NJA","timezone":"Asia/Tokyo","latitude":35.416668,"longitude":139.35},
  {"id":"acf4e345-b430-4b44-a212-74b612521c1e","name":"Saurimo","countryCode":"AO","code":"VHC","timezone":"Africa/Luanda","latitude":-9.75,"longitude":20.55},
  {"id":"cbdf6e36-db5d-479e-a693-1ff35524996d","name":"Shijiazhuang","countryCode":"CN","code":"SJW","timezone":"Asia/Shanghai","latitude":38.274376,"longitude":114.69443},
  {"id":"b287ab3c-2e9a-48ea-8576-041ae164c9c4","name":"Thanh Hoa","countryCode":"VN","code":"THD","timezone":"Asia/Ho_Chi_Minh","latitude":19.8075,"longitude":105.77639},
  {"id":"220ff9d8-ed42-4f80-8442-a47e55bfcef6","name":"Ayr","countryCode":"AU","code":"AYR","timezone":"Australia/Brisbane","latitude":-19.596666,"longitude":147.32445},
  {"id":"bd899d6a-8e43-46b6-80dc-31917a751b78","name":"Mount Etjo Lodge","countryCode":"NA","code":"MJO","timezone":"Africa/Windhoek","latitude":-21.018333,"longitude":16.469168},
  {"id":"af4e3e03-e416-4888-8a4f-469d5c812077","name":"Gardo","countryCode":"SO","code":"GSR","timezone":"Africa/Mogadishu","latitude":9.5,"longitude":49.05},
  {"id":"84bfb06d-5d4e-4b7c-ad5c-a414e242b29f","name":"Drake Bay","countryCode":"CR","code":"DRK","timezone":"America/Costa_Rica","latitude":8.71962,"longitude":-83.6446},
  {"id":"52c89d1a-17b3-4a73-bf0f-0ccc25a93fbd","name":"Fiumicino","countryCode":"IT","code":"ZRR","timezone":"Europe/Rome","latitude":41.772026,"longitude":12.22331},
  {"id":"ba48a359-9998-4bf9-8d68-e0e3bef90772","name":"Holman","countryCode":"CA","code":"YHI","timezone":"America/Yellowknife","latitude":70.71667,"longitude":-117.71667},
  {"id":"4a5ba30f-e195-49f6-8fe0-62a9a3d5af47","name":"Oroville","countryCode":"US","code":"OVE","timezone":"America/Los_Angeles","latitude":39.5,"longitude":-121.61667},
  {"id":"a20ad6ab-6a7f-4913-b599-66b3555e7ba4","name":"Dang","countryCode":"NP","code":"DNP","timezone":"Asia/Kathmandu","latitude":28.116667,"longitude":82.316666},
  {"id":"1528d959-5820-4d17-9293-d0e4f3e88ee0","name":"Kirkland Lake","countryCode":"CA","code":"YKX","timezone":"America/Toronto","latitude":48.15,"longitude":-80.03333},
  {"id":"bc610c24-ac52-4859-98b8-520c0e418b37","name":"Giebelstadt","countryCode":"DE","code":"GHF","timezone":"Europe/Berlin","latitude":49.65,"longitude":9.966667},
  {"id":"3081c031-dd10-436b-93cd-53e58e3e3368","name":"Wales","countryCode":"US","code":"WAA","timezone":"America/Anchorage","latitude":65.617226,"longitude":-168.09084},
  {"id":"e52abc99-a3a0-4d63-86fa-4661fd3f719b","name":"Antibes","countryCode":"FR","code":"XAT","timezone":"Europe/Paris","latitude":43.5808,"longitude":7.1239},
  {"id":"50e3e968-7744-49de-ac48-154fbb538742","name":"Miele Mimbale","countryCode":"GA","code":"GIM","timezone":"Africa/Libreville","latitude":-0.016667,"longitude":11.4},
  {"id":"fd4b9b64-c64e-4149-8c4f-82a7f7a80887","name":"Lathrop Wells","countryCode":"US","code":"LTH","timezone":"America/Los_Angeles","latitude":36.63333,"longitude":-116.38333},
  {"id":"77984b2b-a3d7-4885-b04d-e17b0546a700","name":"Algeciras","countryCode":"ES","code":"AEI","timezone":"Europe/Madrid","latitude":36.1289,"longitude":-5.441301},
  {"id":"3a586a3c-f806-4a7a-8cbe-609f1f6e2710","name":"Tanjung Pinang","countryCode":"ID","code":"TNJ","timezone":"Asia/Jakarta","latitude":0.919167,"longitude":104.53611},
  {"id":"d78178aa-3b70-41f5-83e5-05326fbb1031","name":"Myvatn","countryCode":"IS","code":"MVA","timezone":"Atlantic/Reykjavik","latitude":65.61667,"longitude":-16.966667},
  {"id":"55476b5a-554d-444e-bb5a-24c7b395f1b4","name":"Ayers Rock","countryCode":"AU","code":"AYQ","timezone":"Australia/Darwin","latitude":-25.190878,"longitude":130.97658},
  {"id":"f73f2a09-f5b9-4f09-9a8f-b6647c0cf313","name":"Norseman","countryCode":"AU","code":"NSM","timezone":"Australia/Perth","latitude":-32.2,"longitude":121.75},
  {"id":"d09ece0d-ed22-46d7-aaa0-737179006627","name":"Bambari","countryCode":"CF","code":"BBY","timezone":"Africa/Bangui","latitude":5.845833,"longitude":20.649721},
  {"id":"406dd949-4319-440e-bab7-8e29185eb129","name":"El Nido","countryCode":"PH","code":"ENI","timezone":"Asia/Manila","latitude":11.205556,"longitude":119.41278},
  {"id":"1d20ed89-d69f-4f60-9389-943854256171","name":"Huahine","countryCode":"PF","code":"HUH","timezone":"Pacific/Tahiti","latitude":-16.689682,"longitude":-151.02826},
  {"id":"3b7c1acb-e315-4c3b-8696-458a8d23399e","name":"Mo i Rana","countryCode":"NO","code":"MQN","timezone":"Europe/Oslo","latitude":66.36465,"longitude":14.302748},
  {"id":"9f9c39f3-2b80-431b-8379-913413fb077c","name":"Teixeira de Freitas","countryCode":"BR","code":"TXF","timezone":"America/Bahia","latitude":-7.133333,"longitude":-37.183334},
  {"id":"c253fc1b-3a30-451e-948c-b971dfcf45fb","name":"Mena","countryCode":"ET","code":"MZX","timezone":"Africa/Addis_Ababa","latitude":6.35,"longitude":39.716667},
  {"id":"a0b6f452-20c1-435e-b1d9-2c2c7ce58103","name":"Colima","countryCode":"MX","code":"CLQ","timezone":"America/Mexico_City","latitude":19.3,"longitude":-103.65},
  {"id":"52486069-5a00-447a-9091-c8062dbfecbd","name":"Tatakoto","countryCode":"PF","code":"TKV","timezone":"Pacific/Tahiti","latitude":-17.283333,"longitude":-138.33333},
  {"id":"15665f78-115d-45c2-9106-b5adfe63e89b","name":"Clovis","countryCode":"US","code":"CVN","timezone":"America/Denver","latitude":34.4048,"longitude":-103.20523},
  {"id":"45515e78-48fb-413b-ae49-255dd65fc4ff","name":"La Serena","countryCode":"CL","code":"LSC","timezone":"America/Santiago","latitude":-29.917297,"longitude":-71.20369},
  {"id":"76b82b62-1da6-4537-9f40-da7ba168da39","name":"Mont Tremblant","countryCode":"CA","code":"YTM","timezone":"America/Montreal","latitude":46.515556,"longitude":-74.75528},
  {"id":"297c6311-f96f-4a89-a0e2-4d85e4b9d06a","name":"Mukeiras","countryCode":"YE","code":"UKR","timezone":"Asia/Aden","latitude":13.933333,"longitude":45.683334},
  {"id":"6783ac83-bdbf-47d6-b4ce-54da7eb67c4b","name":"Central","countryCode":"US","code":"CEM","timezone":"America/Anchorage","latitude":65.57472,"longitude":-144.78194},
  {"id":"a589e7c1-0e3d-4e7f-b8aa-6d55d21918a9","name":"Flam","countryCode":"NO","code":"XGH","timezone":"Europe/Oslo","latitude":60.86312,"longitude":7.11386},
  {"id":"5a83464f-b8e8-41cd-910e-d6738212f4b9","name":"Taipa","countryCode":"MO","code":"YFT","timezone":"Asia/Macau","latitude":-18.178333,"longitude":125.55417},
  {"id":"8957bb2e-54f3-4c77-9a23-22ca646780c8","name":"Gwangju","countryCode":"KR","code":"KWJ","timezone":"Asia/Seoul","latitude":35.140175,"longitude":126.81021},
  {"id":"e8b047b6-7b41-4aa3-a27b-d22634ab6c13","name":"Ararat","countryCode":"AU","code":"ARY","timezone":"Australia/Melbourne","latitude":-37.316666,"longitude":143},
  {"id":"bdf13008-cf7d-4d18-ba73-be379fc26fb9","name":"Kibuli","countryCode":"PG","code":"KII","timezone":"Pacific/Port_Moresby","latitude":-9.016389,"longitude":142.69528},
  {"id":"b68fbbc2-9cde-4446-9679-be5bbfe8424d","name":"Dijon","countryCode":"FR","code":"DIJ","timezone":"Europe/Paris","latitude":47.270832,"longitude":5.088889},
  {"id":"cda63c70-61b7-4993-b93e-4dbe30fe3a92","name":"Podor","countryCode":"SN","code":"POD","timezone":"Africa/Dakar","latitude":16.666668,"longitude":-14.966667},
  {"id":"b6037f74-0a88-4b22-8e1f-e57431111536","name":"Dessie","countryCode":"ET","code":"DSE","timezone":"Africa/Addis_Ababa","latitude":11.075,"longitude":39.71528},
  {"id":"b9f49b39-46d0-4451-ac6d-5cfbf050e512","name":"Langley","countryCode":"CA","code":"YLY","timezone":"America/Vancouver","latitude":49.100834,"longitude":-122.63084},
  {"id":"0524638f-35f7-433e-987b-d9abaa280e5e","name":"Casino","countryCode":"AU","code":"CSI","timezone":"Australia/Sydney","latitude":-28.883333,"longitude":153.05833},
  {"id":"7200ac6e-fe3c-4b48-baad-3e41bc58a633","name":"Bandon","countryCode":"US","code":"BDY","timezone":"America/Los_Angeles","latitude":43.11667,"longitude":-124.416664},
  {"id":"7a12a65b-6ec7-41f7-b649-932fda913861","name":"Bantry","countryCode":"IE","code":"BYT","timezone":"Europe/Dublin","latitude":51.683334,"longitude":-9.45},
  {"id":"0ee35394-9430-468d-b317-d89b9932fcab","name":"Valencia","countryCode":"ES","code":"VLC","timezone":"Europe/Madrid","latitude":39.490734,"longitude":-0.4558824},
  {"id":"2f96244f-d1ae-4f6f-a286-98062221cede","name":"Altamira","countryCode":"BR","code":"ATM","timezone":"America/Santarem","latitude":-3.2,"longitude":-52.216667},
  {"id":"0fa95f24-74a9-4aae-9d48-2de44f91c9bf","name":"Arauca","countryCode":"CO","code":"AUC","timezone":"America/Bogota","latitude":7.071667,"longitude":-70.7425},
  {"id":"9fd11641-7cc7-48e9-8c7d-0d5bff40dd85","name":"Akhiok","countryCode":"US","code":"AKK","timezone":"America/Anchorage","latitude":56.944443,"longitude":-154.16667},
  {"id":"dccd6af3-f0b3-4e55-bf45-117733f3092f","name":"Oujda","countryCode":"MA","code":"OUD","timezone":"Africa/Casablanca","latitude":34.783333,"longitude":-1.933333},
  {"id":"90765cfa-5fd2-463e-8349-0d99fbb36591","name":"Ruston","countryCode":"US","code":"RSN","timezone":"America/Chicago","latitude":32.516666,"longitude":-92.63333},
  {"id":"c9a949c4-4811-48c6-925f-edb4bb16f41b","name":"Ruti","countryCode":"PG","code":"RUU","timezone":"Pacific/Port_Moresby","latitude":-5.183333,"longitude":144.15},
  {"id":"4df6eff7-bbb9-42ea-9275-abf4b35b0955","name":"Calbayog","countryCode":"PH","code":"CYP","timezone":"Asia/Manila","latitude":12.075833,"longitude":124.54305},
  {"id":"069d75de-9a20-4d28-a1bf-9971a0d217b6","name":"Moelv","countryCode":"NO","code":"XUJ","timezone":"Europe/Oslo","latitude":60.93333,"longitude":10.6925},
  {"id":"54bab59f-7343-4a15-81bd-287973338275","name":"Manily","countryCode":"RU","code":"МИЛ","timezone":"Asia/Kamchatka","latitude":62.485832,"longitude":165.3364},
  {"id":"8d4bf576-1cf3-4deb-9060-cea119c704c1","name":"Minami Daito","countryCode":"JP","code":"MMD","timezone":"Asia/Tokyo","latitude":25.841389,"longitude":131.24722},
  {"id":"6cf05515-535b-470b-b097-da63eaaeba6a","name":"Schoena","countryCode":"DE","code":"ZSC","timezone":"Europe/Berlin","latitude":47.949707,"longitude":11.967939},
  {"id":"bd81868d-ea20-4743-9b0b-c85baa990a25","name":"Battambang","countryCode":"KH","code":"BBM","timezone":"Asia/Phnom_Penh","latitude":13.116667,"longitude":103.2},
  {"id":"87511cc7-94aa-4ff5-b7f1-d9897b116c51","name":"San Juan D Ur","countryCode":"CO","code":"SJR","timezone":"America/Bogota","latitude":8.766667,"longitude":-76.53333},
  {"id":"2f5c0ca5-c6a8-4f76-b994-2524682aebf0","name":"Slave Lake","countryCode":"CA","code":"YZH","timezone":"America/Edmonton","latitude":55.3,"longitude":-114.78333},
  {"id":"99a616df-9c6c-4ad8-b471-b8ce94c7f710","name":"Anuradhapura","countryCode":"LK","code":"ACJ","timezone":"Asia/Colombo","latitude":8.35,"longitude":80.38333},
  {"id":"80ce7f14-4443-49c7-8427-635e56421aee","name":"Niau","countryCode":"PF","code":"NIU","timezone":"Pacific/Tahiti","latitude":-16.121988,"longitude":-146.37325},
  {"id":"db4fe8ac-2135-4cd8-b6ca-ed7d56d599dc","name":"Ciudad del Este","countryCode":"PY","code":"AGT","timezone":"America/Asuncion","latitude":-25.5,"longitude":-54.833332},
  {"id":"36954c04-ffd4-4186-bb5e-2dc7009ff534","name":"Kenora","countryCode":"CA","code":"YQK","timezone":"America/Winnipeg","latitude":49.7875,"longitude":-94.35833},
  {"id":"7e288e79-69d0-498c-9ca9-e6386adb681a","name":"Ponta Grossa","countryCode":"BR","code":"PGZ","timezone":"America/Sao_Paulo","latitude":-25.083332,"longitude":-50.15},
  {"id":"9b3cb300-793a-4363-b0a2-d8ca92aaba63","name":"Santana Do Araguaia","countryCode":"BR","code":"CMP","timezone":"America/Belem","latitude":-9.8,"longitude":-36.35},
  {"id":"bdbab3b8-e41d-436f-8dbb-0edcd72343c3","name":"Nyurba","countryCode":"RU","code":"NYR","timezone":"Asia/Yakutsk","latitude":63.283333,"longitude":118.333336},
  {"id":"6cfaf17e-a75b-4488-b306-a687b3e7369d","name":"Orsta-Volda","countryCode":"NO","code":"HOV","timezone":"Europe/Oslo","latitude":62.179787,"longitude":6.078802},
  {"id":"38dbe960-2e92-4a15-ae9e-04f14a5ecb42","name":"Ipswich","countryCode":"GB","code":"IPW","timezone":"Europe/London","latitude":52.066666,"longitude":1.166667},
  {"id":"97b42e89-2bc3-483c-8e58-cb040732d16c","name":"Lumbala","countryCode":"AO","code":"GGC","timezone":"Africa/Luanda","latitude":-12.65,"longitude":22.566668},
  {"id":"4d0e367f-3099-41c5-a2e1-b59ff38b9a32","name":"Sabah","countryCode":"PG","code":"SBV","timezone":"Pacific/Port_Moresby","latitude":-5.333333,"longitude":155.01666},
  {"id":"ec6f123a-ab0c-4de9-93bb-04a9377d4a6d","name":"Wolf Point","countryCode":"US","code":"OLF","timezone":"America/Denver","latitude":48.094723,"longitude":-105.56639},
  {"id":"62c0c0c5-329c-40f1-a923-50077cb7d140","name":"Escanaba","countryCode":"US","code":"ESC","timezone":"America/Detroit","latitude":45.720554,"longitude":-87.08667},
  {"id":"55ed5e13-51c7-496c-ae37-ce3055286bab","name":"Bembridge","countryCode":"GB","code":"BBP","timezone":"Europe/London","latitude":50.683334,"longitude":-1.083333},
  {"id":"bd7af818-be49-48d0-8a93-32b0d61622f1","name":"Kota","countryCode":"IN","code":"KTU","timezone":"Asia/Kolkata","latitude":25,"longitude":76.5},
  {"id":"b54a7a66-607d-4b50-bc21-70430155d720","name":"Bishe-kola","countryCode":"IR","code":"BSM","timezone":"Asia/Tehran","latitude":36.65,"longitude":52.35},
  {"id":"9b1802d6-28c8-42a7-ba49-52f901cb0358","name":"Passau","countryCode":"DE","code":"ZPF","timezone":"Europe/Berlin","latitude":48.56667,"longitude":13.46667},
  {"id":"242595fc-1ee8-42e6-aae0-7cc54a2ebc53","name":"Sion","countryCode":"CH","code":"SIR","timezone":"Europe/Zurich","latitude":46.25,"longitude":7.333333},
  {"id":"3e5e0abf-10d5-4385-9011-d17e62ccdc78","name":"Morlaix","countryCode":"FR","code":"MXN","timezone":"Europe/Paris","latitude":48.6,"longitude":-3.816667},
  {"id":"04629d1c-c8e5-46d6-9204-066e2f3c8e08","name":"Kuran-Wa-Munjan","countryCode":"AF","code":"KUR","timezone":"Asia/Kabul","latitude":38.4,"longitude":71.11667},
  {"id":"5383ea03-082e-488e-bd3b-275fdb2c2884","name":"Narvik","countryCode":"NO","code":"NVK","timezone":"Europe/Oslo","latitude":68.425,"longitude":17.425},
  {"id":"047f6e87-8b1c-45e2-bc59-2de4720687aa","name":"Lugansk","countryCode":"UA","code":"VSG","timezone":"Europe/Kiev","latitude":48.566666,"longitude":39.333332},
  {"id":"7ed14835-30d0-49ae-a7f6-573824367e64","name":"Wonenara","countryCode":"PG","code":"WOA","timezone":"Pacific/Port_Moresby","latitude":-6.8,"longitude":145.88333},
  {"id":"bb5dd38a-cfc0-474d-a674-0b386ffffb04","name":"Dong Hoi","countryCode":"VN","code":"VDH","timezone":"Asia/Ho_Chi_Minh","latitude":17.515,"longitude":106.59055},
  {"id":"e21e621a-77c2-4266-b42d-3a9af3a5601f","name":"Florence","countryCode":"US","code":"FMU","timezone":"America/Los_Angeles","latitude":33.97,"longitude":-118.28},
  {"id":"fc100b88-5049-4655-8f5f-47a61e4b7723","name":"Kandahar","countryCode":"AF","code":"KDH","timezone":"Asia/Kabul","latitude":31.506945,"longitude":65.8475},
  {"id":"f055ca73-1a3a-4aa2-a00c-d564505f756c","name":"Kastellorizo","countryCode":"GR","code":"KZS","timezone":"Europe/Athens","latitude":36.083332,"longitude":29.333332},
  {"id":"612b25db-ec89-4009-8db6-89ea1f4239a4","name":"Livermore","countryCode":"US","code":"LVK","timezone":"America/Los_Angeles","latitude":37.69389,"longitude":-121.81722},
  {"id":"7ee16ebe-1ad4-4619-954a-998b41448576","name":"St Thomas","countryCode":"CA","code":"YQS","timezone":"America/Toronto","latitude":42.783333,"longitude":-81.2},
  {"id":"66c361e2-7908-410b-ac0a-acd840087791","name":"Arctic Bay","countryCode":"CA","code":"YAB","timezone":"America/Iqaluit","latitude":73.03333,"longitude":-85.183334},
  {"id":"7e516673-9d92-45a0-af17-06a76e5d90ca","name":"Param","countryCode":"PG","code":"PPX","timezone":"Pacific/Port_Moresby","latitude":-9.995833,"longitude":149.59166},
  {"id":"3dc53b12-e436-4f1f-b9ed-dfb81cad41e5","name":"Bowling Green","countryCode":"US","code":"BWG","timezone":"America/Chicago","latitude":36.962223,"longitude":-86.42222},
  {"id":"158073a0-1776-4c6b-abaf-cad7a5cf5750","name":"Ji'An","countryCode":"CN","code":"JGS","timezone":"Asia/Shanghai","latitude":26.899721,"longitude":114.7375},
  {"id":"2cef92ea-1c28-42cb-bfd0-3e13c4b8221c","name":"Stuttgart","countryCode":"US","code":"SGT","timezone":"America/Chicago","latitude":34.5,"longitude":-91.53333},
  {"id":"cb3d1e70-3002-4174-8f8f-4798926316eb","name":"Ganes Creek","countryCode":"US","code":"GEK","timezone":"America/Anchorage","latitude":63.1,"longitude":-156.43333},
  {"id":"6f306a65-4a26-410b-ad95-fbdd30b6347b","name":"Toledo","countryCode":"ES","code":"XTJ","timezone":"Europe/Madrid","latitude":39.8624,"longitude":-4.01125},
  {"id":"0a46ca2f-9aa8-4426-bbb6-180f80b61670","name":"Nuqui","countryCode":"CO","code":"NQU","timezone":"America/Bogota","latitude":5.7,"longitude":-77.28333},
  {"id":"ed540587-5b40-4acc-a4be-0bcfd15e802b","name":"Danville","countryCode":"US","code":"DNV","timezone":"America/Chicago","latitude":40.197224,"longitude":-87.59695},
  {"id":"20710c32-e7ef-4efb-bfc7-1f0a5215a46c","name":"Jamba","countryCode":"AO","code":"JMB","timezone":"Africa/Luanda","latitude":-14.7,"longitude":16.083332},
  {"id":"cc5fe066-41a8-436e-a922-a371d54460f7","name":"Petawawa","countryCode":"CA","code":"YWA","timezone":"America/Toronto","latitude":45.9,"longitude":-77.28333},
  {"id":"2a7f392f-96cc-4cc7-ab98-45d4d70ce391","name":"Augusta","countryCode":"US","code":"AUG","timezone":"America/New_York","latitude":44.318054,"longitude":-69.79667},
  {"id":"bb8ca294-86c5-4fc6-b4c4-60812321696b","name":"Montgomery","countryCode":"US","code":"MGM","timezone":"America/Chicago","latitude":32.361668,"longitude":-86.27917},
  {"id":"d4832762-9063-46ab-91c2-012c2d70e741","name":"Leicestershire","countryCode":"GB","code":"NQT","timezone":"Europe/London","latitude":52.955116,"longitude":-1.1491718},
  {"id":"28569274-919f-421c-81f6-74582295f325","name":"El Dorado","countryCode":"VE","code":"EOR","timezone":"America/Caracas","latitude":6.733333,"longitude":-61.88333},
  {"id":"5d392412-7abc-414d-bf8f-829800128b68","name":"Penang","countryCode":"MY","code":"ZJR","timezone":"Asia/Kuala_Lumpur","latitude":5.438184,"longitude":100.20971},
  {"id":"d523e9bc-6517-4795-903b-a72b1ae16538","name":"Oksapmin","countryCode":"PG","code":"OKP","timezone":"Pacific/Port_Moresby","latitude":-5.25,"longitude":142.08333},
  {"id":"142273fa-cb39-40a4-9710-3cbbe5f378d7","name":"Ujung Pandang","countryCode":"ID","code":"UPG","timezone":"Asia/Makassar","latitude":-5.058312,"longitude":119.54589},
  {"id":"f1fd3f21-570f-4912-abfb-c7a7a1debdb9","name":"Seshutes","countryCode":"LS","code":"SHZ","timezone":"Africa/Maseru","latitude":-29.166668,"longitude":28},
  {"id":"a2eef003-2eb2-49c5-a68a-d9c3ef5e6f50","name":"Quesnel","countryCode":"CA","code":"YQZ","timezone":"America/Vancouver","latitude":53.02667,"longitude":-122.50972},
  {"id":"f1fde314-f806-4b02-8f03-c4bb4f877ac3","name":"Gizo","countryCode":"SB","code":"GZO","timezone":"Pacific/Guadalcanal","latitude":-8.116667,"longitude":156.83333},
  {"id":"a2552410-ed11-4fba-9ae3-1c3ceac93b06","name":"Pskov","countryCode":"RU","code":"PKV","timezone":"Europe/Moscow","latitude":57.816666,"longitude":28.3},
  {"id":"f41fe0fa-317b-481f-b4eb-89fdcb238900","name":"Ludhiana","countryCode":"IN","code":"LUH","timezone":"Asia/Kolkata","latitude":30.9,"longitude":75.85},
  {"id":"ef87d131-2ce9-485a-9f76-b1ac7d994302","name":"Yekaterinburg","countryCode":"RU","code":"SVX","timezone":"Asia/Yekaterinburg","latitude":56.750336,"longitude":60.804314},
  {"id":"04b882f0-96ee-4775-a68c-fc001ff0ced6","name":"Ross River","countryCode":"CA","code":"XRR","timezone":"America/Whitehorse","latitude":61.983334,"longitude":-132.45},
  {"id":"26df6d4b-d15f-4997-b510-bfc290fc2024","name":"Liangping","countryCode":"CN","code":"LIA","timezone":"Asia/Shanghai","latitude":30.816668,"longitude":107.7},
  {"id":"cddd763e-64f8-422e-8ca2-1103ee20b533","name":"Walnut Ridge","countryCode":"US","code":"ARG","timezone":"America/Chicago","latitude":36.066666,"longitude":-90.95},
  {"id":"e7cf5622-32ec-458c-b906-08bca588ebe5","name":"Kirov","countryCode":"RU","code":"KVX","timezone":"Europe/Moscow","latitude":58.5,"longitude":49.35},
  {"id":"a99abed7-2f38-4410-aa01-e0eae2dbe17e","name":"Kasikasima","countryCode":"SR","code":"KCB","timezone":"America/Paramaribo","latitude":3.15,"longitude":-55.716667},
  {"id":"e90f1c1c-7b8c-4554-bbde-a931ab9adf05","name":"Upland","countryCode":"US","code":"CCB","timezone":"America/Los_Angeles","latitude":34.09751,"longitude":-117.648384},
  {"id":"85a0e16c-d628-4364-84e0-a45b194918ef","name":"Yapsiei","countryCode":"PG","code":"KPE","timezone":"Pacific/Port_Moresby","latitude":-4.05,"longitude":141.16667},
  {"id":"2a3f4608-36cb-4fb5-b3f6-3000118e4330","name":"Petropavlovsk-Kamchatsky","countryCode":"RU","code":"PKC","timezone":"Asia/Kamchatka","latitude":53.016666,"longitude":158.65},
  {"id":"f539e736-d7e6-4c3e-b0ba-a30f783d1615","name":"Shemya","countryCode":"US","code":"SYA","timezone":"America/Adak","latitude":52.7175,"longitude":174.08945},
  {"id":"b13fb29a-3901-41dc-8f76-0c7eb5650075","name":"Excursion Inlet","countryCode":"US","code":"EXI","timezone":"America/Juneau","latitude":58.420834,"longitude":-135.44722},
  {"id":"0586bae7-8639-434e-acdf-c81c13661a6a","name":"St-Genis","countryCode":"FR","code":"QXK","timezone":"Europe/Paris","latitude":45.69528,"longitude":4.79306},
  {"id":"40fdf7e7-0ff9-4cc8-b290-df21c281946b","name":"Awaba","countryCode":"PG","code":"AWB","timezone":"Pacific/Port_Moresby","latitude":-8.016667,"longitude":142.75},
  {"id":"2ab1c20b-43a8-4326-9d7c-a53c0675731d","name":"Ann","countryCode":"MM","code":"VBA","timezone":"Asia/Yangon","latitude":19.768888,"longitude":94.02611},
  {"id":"5d2072a6-2aa6-4f9e-9915-04099540b4d8","name":"Putao","countryCode":"MM","code":"PBU","timezone":"Asia/Rangoon","latitude":27.333332,"longitude":97.416664},
  {"id":"7621cf5d-6e97-4b7b-909d-f3d2f7422571","name":"Chlef","countryCode":"DZ","code":"CFK","timezone":"Africa/Algiers","latitude":36.212223,"longitude":1.331667},
  {"id":"f8b778d5-1a90-4371-8bd7-db38091aac37","name":"Brussels","countryCode":"BE","code":"BRU","timezone":"Europe/Brussels","latitude":50.850338,"longitude":4.3517103},
  {"id":"17773b23-c75c-43b7-983b-1978e46455da","name":"Agzu","countryCode":"RU","code":"АЗУ","timezone":"Asia/Vladivostok","latitude":47.59667,"longitude":138.36833},
  {"id":"629b169d-ce2a-47f7-958f-21a4bd781a94","name":"Kiwayu","countryCode":"KE","code":"KWY","timezone":"Africa/Nairobi","latitude":-2.016667,"longitude":41.266666},
  {"id":"ac6b9484-d215-4244-bdf6-af34f286fb3c","name":"Nikolski","countryCode":"US","code":"IKO","timezone":"America/Anchorage","latitude":52.941666,"longitude":-168.85},
  {"id":"cea05921-3138-4857-aee1-7c440d41cdad","name":"Bozoum","countryCode":"CF","code":"BOZ","timezone":"Africa/Bangui","latitude":6.416667,"longitude":16.583332},
  {"id":"16d241f8-d5c1-4f4e-b891-974678076679","name":"Carutapera","countryCode":"BR","code":"CTP","timezone":"America/Fortaleza","latitude":-1.25,"longitude":-46.016666},
  {"id":"302b242e-6fe0-4ba8-865d-edc89ef103fd","name":"Rodrigues Island","countryCode":"MU","code":"RRG","timezone":"Indian/Mauritius","latitude":-19.75,"longitude":63.35},
  {"id":"08d73e79-7113-4d84-8929-e688faba8269","name":"Qingdao","countryCode":"CN","code":"TAO","timezone":"Asia/Shanghai","latitude":36.265884,"longitude":120.38236},
  {"id":"9016bc79-f524-4cde-a8d5-4f71923761d4","name":"Mount Hotham","countryCode":"AU","code":"MHU","timezone":"Australia/Melbourne","latitude":-36.966667,"longitude":147.18333},
  {"id":"207682af-def9-4000-9c73-fd2b467ce125","name":"Lubango","countryCode":"AO","code":"SDD","timezone":"Africa/Luanda","latitude":-14.924444,"longitude":13.576667},
  {"id":"717e6539-d266-4633-b116-1e197388cf8a","name":"St Paul","countryCode":"CA","code":"ZSP","timezone":"America/Montreal","latitude":47.916668,"longitude":-69.25},
  {"id":"5be2fce4-0d85-4f8c-b486-e5cfd10b3c9d","name":"Kandla","countryCode":"IN","code":"IXY","timezone":"Asia/Kolkata","latitude":23.11111,"longitude":70.104164},
  {"id":"a520c08d-d527-49f3-85c5-62947575f18f","name":"Kabalega Falls","countryCode":"UG","code":"KBG","timezone":"Africa/Kampala","latitude":2.329444,"longitude":31.49639},
  {"id":"fb38933c-ee78-4abc-bdd4-6f35482bea05","name":"Wallal","countryCode":"AU","code":"WLA","timezone":"Australia/Perth","latitude":-19.783333,"longitude":120.666664},
  {"id":"a42aff00-86c8-471b-81b3-e902fe77fd9b","name":"Hodeidah","countryCode":"YE","code":"HOD","timezone":"Asia/Aden","latitude":14.755638,"longitude":42.970478},
  {"id":"2d8fc70e-524b-48fb-81a9-8f26fa75e917","name":"Lereh","countryCode":"ID","code":"LHI","timezone":"Asia/Jayapura","latitude":-3.133333,"longitude":139.9},
  {"id":"5c55a61b-b9a5-4fe0-be6d-0bd6f44d3539","name":"Bojnord","countryCode":"IR","code":"BJB","timezone":"Asia/Tehran","latitude":37.48972,"longitude":57.30885},
  {"id":"531e7226-eddb-42ef-8dae-2c96059134a3","name":"Rengat","countryCode":"ID","code":"RGT","timezone":"Asia/Jakarta","latitude":-0.4,"longitude":102.55},
  {"id":"346f200d-f4ed-41be-95af-6496f9f96bdc","name":"Joroinen","countryCode":"FI","code":"VRK","timezone":"Europe/Helsinki","latitude":62.3,"longitude":27.933332},
  {"id":"931295e3-d995-4ae5-ac7c-8bc4e0403588","name":"Crewe","countryCode":"GB","code":"XVC","timezone":"Europe/London","latitude":53.099,"longitude":-2.44},
  {"id":"1525bf31-2b21-4e97-b9aa-4173353ea40e","name":"Asheville","countryCode":"US","code":"AVL","timezone":"America/New_York","latitude":35.43508,"longitude":-82.537315},
  {"id":"611cd866-019e-4724-b00f-a8f47c73dd64","name":"Cascavel","countryCode":"BR","code":"CAC","timezone":"America/Sao_Paulo","latitude":-24.95,"longitude":-53.466667},
  {"id":"f186a24c-74d8-402b-b2e5-305af59478a6","name":"Saibai Island","countryCode":"AU","code":"SBR","timezone":"Australia/Brisbane","latitude":-9.383333,"longitude":142.63333},
  {"id":"f1d45c77-e230-4951-8359-a0d9d72c6705","name":"Wigan","countryCode":"GB","code":"XWI","timezone":"Europe/London","latitude":53.544106,"longitude":-2.6328},
  {"id":"9eb36fb3-a647-4e9d-a7d7-b46854eb189e","name":"Taltheilei Narrows","countryCode":"CA","code":"GSL","timezone":"America/Yellowknife","latitude":62.5975,"longitude":-111.54444},
  {"id":"c96201de-d68e-4caa-af9b-9c2bea17a5fb","name":"Klag Bay","countryCode":"US","code":"KBK","timezone":"America/Sitka","latitude":57.666668,"longitude":-136.16667},
  {"id":"809f9718-8a52-4166-800c-b87f210ed04d","name":"Yeva","countryCode":"PG","code":"YVD","timezone":"Pacific/Port_Moresby","latitude":-7.55,"longitude":146.18889},
  {"id":"958884e0-d5e6-45d5-aaf6-007f258395a2","name":"Mutare","countryCode":"ZW","code":"UTA","timezone":"Africa/Harare","latitude":-18.966667,"longitude":32.666668},
  {"id":"c5811f04-622a-41b1-9214-f1efd244b810","name":"Cross City","countryCode":"US","code":"CTY","timezone":"America/New_York","latitude":29.633333,"longitude":-83.11667},
  {"id":"c0d91be9-bf72-49d8-909c-5c11254a9061","name":"Andamooka","countryCode":"AU","code":"ADO","timezone":"Australia/Adelaide","latitude":-31.016666,"longitude":137.15},
  {"id":"ff3c34ea-6e7c-4a2e-a30f-fa11794327e1","name":"Springfield","countryCode":"US","code":"SGF","timezone":"America/Chicago","latitude":37.24237,"longitude":-93.38226},
  {"id":"5092257b-e07e-4053-ab96-ed43aa403fb9","name":"Car Nicobar","countryCode":"IN","code":"CBD","timezone":"Asia/Kolkata","latitude":9.15,"longitude":92.816666},
  {"id":"34122e81-6003-43db-bb11-2b79ca30761d","name":"Harare","countryCode":"ZW","code":"HRE","timezone":"Africa/Harare","latitude":-17.91863,"longitude":31.099249},
  {"id":"2a21927d-2587-4060-9e26-8a11aeaa7f16","name":"Tougan","countryCode":"BF","code":"TUQ","timezone":"Africa/Ouagadougou","latitude":13,"longitude":-3},
  {"id":"3d4ee740-e104-4d36-9224-9db148fa4233","name":"Hawthorne","countryCode":"US","code":"HHR","timezone":"America/Los_Angeles","latitude":33.926945,"longitude":-118.33639},
  {"id":"0dd6ecb3-e758-4261-b62a-028589a31e4c","name":"Nutuve","countryCode":"PG","code":"NUT","timezone":"Pacific/Port_Moresby","latitude":-5.633333,"longitude":151.38333},
  {"id":"e2c362e7-2dcc-4eab-9dd8-125d41d5289d","name":"Quonset Point","countryCode":"US","code":"NCO","timezone":"America/New_York","latitude":41,"longitude":-71},
  {"id":"935f1d83-5016-4ec4-a9f6-cb27f824f9c3","name":"Wellsville","countryCode":"US","code":"ELZ","timezone":"America/New_York","latitude":42.11667,"longitude":-77.95},
  {"id":"a6ea22e8-57a0-4854-9cac-c1fd42919d97","name":"Scampton","countryCode":"GB","code":"SQZ","timezone":"Europe/London","latitude":53.3,"longitude":-0.583333},
  {"id":"47d5daec-afbe-41fd-a2e2-065db9371165","name":"Bowman","countryCode":"US","code":"BWM","timezone":"America/Boise","latitude":46.183334,"longitude":-103.4},
  {"id":"d60f3dd3-1a3b-4b00-8d2b-087df2f1a5b5","name":"Tumeremo","countryCode":"VE","code":"TMO","timezone":"America/Caracas","latitude":7.3,"longitude":-61.5},
  {"id":"03a85bf3-4692-4992-b8f1-ffad81bc4c10","name":"Eunice","countryCode":"US","code":"UCE","timezone":"America/Chicago","latitude":30.5,"longitude":-92.416664},
  {"id":"2883b20f-bf86-4453-bdae-51883507c54c","name":"Masirah","countryCode":"OM","code":"MSH","timezone":"Asia/Muscat","latitude":20.680555,"longitude":58.891666},
  {"id":"e3860556-ac95-4e2b-88a4-811f23a5a1a1","name":"Lukulu","countryCode":"ZM","code":"LXU","timezone":"Africa/Lusaka","latitude":-14.416667,"longitude":23.2},
  {"id":"5813881c-5d89-42a1-a8ac-235f341b5aab","name":"Hof","countryCode":"DE","code":"HOQ","timezone":"Europe/Berlin","latitude":50.289165,"longitude":11.862222},
  {"id":"96fea0ed-b51c-43f3-bea9-e156d89fcd5c","name":"Al Hoceima","countryCode":"MA","code":"AHU","timezone":"Africa/Casablanca","latitude":35.17972,"longitude":-3.836944},
  {"id":"affe0b98-62eb-4b50-8e09-ede74d0a584d","name":"Kericho","countryCode":"KE","code":"KEY","timezone":"Africa/Nairobi","latitude":-0.366667,"longitude":35.283333},
  {"id":"0c9feb7f-9865-4601-9644-b76cc5a0364c","name":"Kabri Dar","countryCode":"ET","code":"ABK","timezone":"Africa/Addis_Ababa","latitude":6.733889,"longitude":44.26611},
  {"id":"52127bc8-f886-46b9-b15c-113363b25d3b","name":"Mahdia","countryCode":"GY","code":"MHA","timezone":"America/Guyana","latitude":5.25,"longitude":-59.15},
  {"id":"2897ec33-5a00-4f4c-b0f2-c9e5224f4444","name":"Krakor","countryCode":"KH","code":"KZD","timezone":"Asia/Phnom_Penh","latitude":12.533333,"longitude":104.2},
  {"id":"d1940f1a-b58e-489b-b07c-ac8507eef544","name":"Pantnagar","countryCode":"IN","code":"PGH","timezone":"Asia/Kolkata","latitude":29.031944,"longitude":79.47361},
  {"id":"acab5235-f9af-4cc5-a602-457122b17156","name":"Sendai","countryCode":"JP","code":"SDJ","timezone":"Asia/Tokyo","latitude":38.135555,"longitude":140.92389},
  {"id":"1ca49bcd-f1ec-4971-8cd9-d7d99e94aeaa","name":"Hatzfeldthaven","countryCode":"PG","code":"HAZ","timezone":"Pacific/Port_Moresby","latitude":-4.433333,"longitude":145.18333},
  {"id":"5dfb0353-7cfb-40ca-acd6-c98fa402ba2a","name":"Swindon","countryCode":"GB","code":"XWS","timezone":"Europe/London","latitude":51.5656,"longitude":-1.7854},
  {"id":"f2eed283-88ee-4b92-95bc-32d501312691","name":"Melville","countryCode":"CA","code":"XEK","timezone":"America/Regina","latitude":40.7934,"longitude":-73.4151},
  {"id":"d63b4e01-048e-4e13-bacd-6068b7fcae80","name":"Kwajalein","countryCode":"MH","code":"KWA","timezone":"Pacific/Kwajalein","latitude":8.720843,"longitude":167.72195},
  {"id":"7f78c68d-23e2-477a-9476-34d951a7cc79","name":"Fort Dodge","countryCode":"US","code":"FOD","timezone":"America/Chicago","latitude":42.5525,"longitude":-94.18972},
  {"id":"1967fd7e-77bb-419c-8b04-118b7d36f0c8","name":"Chinchilla","countryCode":"AU","code":"CCL","timezone":"Australia/Brisbane","latitude":-26.75,"longitude":150.63333},
  {"id":"cae18e03-39c2-4848-8238-d9e7b8c71782","name":"Feramin","countryCode":"PG","code":"FRQ","timezone":"Pacific/Port_Moresby","latitude":-5.416667,"longitude":141.7},
  {"id":"e9a396f8-1003-4f91-bd5a-4f510b735c3f","name":"Fort Good Hope","countryCode":"CA","code":"YGH","timezone":"America/Yellowknife","latitude":66.26667,"longitude":-128.65},
  {"id":"19b24366-9622-44e2-aa58-722ff96c28cb","name":"Palmer","countryCode":"US","code":"PMX","timezone":"America/New_York","latitude":42.15,"longitude":-72.316666},
  {"id":"e6bf4bc7-3b05-420b-9baf-e402391ac864","name":"Luzon Island","countryCode":"PH","code":"NCP","timezone":"Asia/Manila","latitude":16,"longitude":121},
  {"id":"b0ff02d0-9d29-4066-8d64-57a13f3d2152","name":"Karato","countryCode":"PG","code":"KAF","timezone":"Pacific/Port_Moresby","latitude":-6.283333,"longitude":155.35},
  {"id":"3d8adb78-83f2-48df-9be9-6d6dc8b5563a","name":"Ust-Maya","countryCode":"RU","code":"UMS","timezone":"Asia/Yakutsk","latitude":60.41528,"longitude":134.54723},
  {"id":"8554fe61-e7a0-4051-ab56-bde6894fa55f","name":"Tamarindo","countryCode":"CR","code":"TNO","timezone":"America/Costa_Rica","latitude":10.314033,"longitude":-85.815475},
  {"id":"35fb4969-d4be-4355-ad12-05491e9ec079","name":"Ingham","countryCode":"AU","code":"IGH","timezone":"Australia/Brisbane","latitude":-18.716667,"longitude":146.16667},
  {"id":"c5349430-a4ed-4b6b-be4d-6411b8f6793b","name":"Esperance","countryCode":"AU","code":"EPR","timezone":"Australia/Perth","latitude":-33.68248,"longitude":121.83039},
  {"id":"d0998503-0102-4c4f-bcd3-983fc17cf155","name":"Ozamis City","countryCode":"PH","code":"OZC","timezone":"Asia/Manila","latitude":8.181967,"longitude":123.84541},
  {"id":"1a528489-1e10-423b-9db1-c70d175406f3","name":"Sovetsky","countryCode":"RU","code":"OVS","timezone":"Asia/Yekaterinburg","latitude":61.33209,"longitude":63.601887},
  {"id":"c8ecc5d5-281a-4236-93b5-b3b954a6443d","name":"Frankfurt (Oder)","countryCode":"DE","code":"ZFR","timezone":"Europe/Berlin","latitude":52.33706,"longitude":14.54727},
  {"id":"89ed5498-975e-4221-bc17-93197a7c5ae5","name":"Manono","countryCode":"CD","code":"MNO","timezone":"Africa/Lubumbashi","latitude":-7.288056,"longitude":27.393888},
  {"id":"544ae3c7-281c-4b05-89ee-dd0f80b71ede","name":"Tarapoto","countryCode":"PE","code":"TPP","timezone":"America/Lima","latitude":-6.511111,"longitude":-76.39861},
  {"id":"af401dff-c0b8-4d15-bee0-7d246dd7c6a5","name":"Sishen","countryCode":"ZA","code":"SIS","timezone":"Africa/Johannesburg","latitude":-27.916668,"longitude":22.983334},
  {"id":"92f4bdc2-cc81-41c1-b9f4-866022b4b542","name":"Angel Fire","countryCode":"US","code":"AXX","timezone":"America/Denver","latitude":36.416668,"longitude":-105.28333},
  {"id":"2b243242-e971-451f-a305-10b9af9fc735","name":"Kirkwall","countryCode":"GB","code":"KOI","timezone":"Europe/London","latitude":58.958057,"longitude":-2.900556},
  {"id":"8db1d62f-2da3-4339-a348-bfa007466846","name":"Jamestown","countryCode":"SH","code":"HLE","timezone":"Atlantic/St_Helena","latitude":-15.924444,"longitude":-5.718056},
  {"id":"4d1a7984-da9c-4f5a-8af4-4987c151d1b6","name":"Blackall","countryCode":"AU","code":"BKQ","timezone":"Australia/Brisbane","latitude":-24.434168,"longitude":145.42833},
  {"id":"97b01690-9d44-4c4b-9f43-e6096c511f74","name":"Guiglo","countryCode":"CI","code":"GGO","timezone":"Africa/Abidjan","latitude":6.333333,"longitude":-7.75},
  {"id":"94771503-bd86-43a8-a89b-15f0ff92b8c1","name":"Manchester","countryCode":"GB","code":"MAN","timezone":"Europe/London","latitude":53.480713,"longitude":-2.2343764},
  {"id":"c07c7ec8-96f7-4541-8bfb-88a20af03dda","name":"Downey","countryCode":"US","code":"JDY","timezone":"America/Los_Angeles","latitude":33.933334,"longitude":-118.11667},
  {"id":"437b2a34-d2aa-41d1-aa19-f3b37db8d2aa","name":"Tufi","countryCode":"PG","code":"TFI","timezone":"Pacific/Port_Moresby","latitude":-9.05,"longitude":149.33333},
  {"id":"5cf564b9-d860-43d8-b343-fbd34b8c82ad","name":"Clinton","countryCode":"US","code":"CSM","timezone":"America/Chicago","latitude":35.539165,"longitude":-96.933334},
  {"id":"3ea6ad88-74e1-42d6-9431-7c23b294cf3d","name":"Urgoon","countryCode":"AF","code":"URN","timezone":"Asia/Kabul","latitude":32.95,"longitude":69.183334},
  {"id":"69abd134-0043-467e-b789-6681477bd428","name":"Kuujjuarapik","countryCode":"CA","code":"YGW","timezone":"America/Montreal","latitude":55.279167,"longitude":-77.76667},
  {"id":"6d9331d7-8d17-45d7-83f5-1a0bc0c570e2","name":"Belfast","countryCode":"GB","code":"BFS","timezone":"Europe/London","latitude":54.597267,"longitude":-5.930109},
  {"id":"be764109-d83d-414c-bb06-bb6096c4e95e","name":"Kamenskoe","countryCode":"RU","code":"КДУ","timezone":"Asia/Kamchatka","latitude":62.465557,"longitude":166.19167},
  {"id":"712ccb07-487b-440f-90bf-597d9aaeb2d6","name":"Sept-Iles","countryCode":"CA","code":"YZV","timezone":"America/Montreal","latitude":50.21751,"longitude":-66.26404},
  {"id":"ed4ccd3f-b2cd-4011-b5f3-bd1f045bf4c5","name":"Mercury","countryCode":"US","code":"DRA","timezone":"America/Los_Angeles","latitude":36.666668,"longitude":-115.96667},
  {"id":"ea05a0ba-b696-418d-ae61-c577f2c537c3","name":"Skukuza","countryCode":"ZA","code":"SZK","timezone":"Africa/Johannesburg","latitude":-24.9625,"longitude":31.586111},
  {"id":"0e8ceb66-395c-4190-b10a-16880a64a71d","name":"Guetersloh","countryCode":"DE","code":"GUT","timezone":"Europe/Berlin","latitude":51.904907,"longitude":8.39275},
  {"id":"c8a1c9b3-f987-4dce-a5cb-a5777ba14fe1","name":"Trinidad","countryCode":"CO","code":"TDA","timezone":"America/Bogota","latitude":5.423611,"longitude":-71.72444},
  {"id":"6983eb40-afa7-44f5-9e5d-856aec57d8f1","name":"Mungeranie","countryCode":"AU","code":"MNE","timezone":"Australia/Adelaide","latitude":-28,"longitude":138.6},
  {"id":"b7d38b57-4e58-4921-84f6-5f29fd1d2335","name":"Thaba Nchu","countryCode":"ZA","code":"TCU","timezone":"Africa/Johannesburg","latitude":-29.283333,"longitude":26.866667},
  {"id":"5341fffc-f5b9-4077-9db0-06c0ebb21155","name":"Russian Mission","countryCode":"US","code":"RSH","timezone":"America/Anchorage","latitude":61.783054,"longitude":-161.31917},
  {"id":"3c189a38-1bc6-4fd0-94bf-344f38a0a08e","name":"Gary","countryCode":"US","code":"GYY","timezone":"America/Chicago","latitude":41.61667,"longitude":-87.416664},
  {"id":"4c575cf9-4eab-4f54-be4a-331ce77ecdcb","name":"Aklavik","countryCode":"CA","code":"LAK","timezone":"America/Yellowknife","latitude":68.22222,"longitude":-134.98584},
  {"id":"ca3899ee-2012-44b8-989a-bc7037c4dadf","name":"Teptep","countryCode":"PG","code":"TEP","timezone":"Pacific/Port_Moresby","latitude":-5.85,"longitude":146.5},
  {"id":"547cf1d8-3422-4bcf-a484-1b23ca5770e1","name":"Tidjikja","countryCode":"MR","code":"TIY","timezone":"Africa/Nouakchott","latitude":18.566668,"longitude":-11.416667},
  {"id":"41e2fd1a-dc5c-43fd-a318-f9551115893b","name":"Big Mountain","countryCode":"US","code":"BMX","timezone":"America/Anchorage","latitude":59.361942,"longitude":-155.25667},
  {"id":"38b68312-b967-4e8f-b49e-6c6a7c95ac93","name":"Dire Dawa","countryCode":"ET","code":"DIR","timezone":"Africa/Addis_Ababa","latitude":9.61338,"longitude":41.857994},
  {"id":"92d4a47e-5bc6-498d-856d-488595fe07e5","name":"Kowanyama","countryCode":"AU","code":"KWM","timezone":"Australia/Brisbane","latitude":-15.4875,"longitude":141.74834},
  {"id":"36e9893a-cde5-4953-9667-7c2cf4bb1435","name":"Senipah","countryCode":"ID","code":"SZH","timezone":"Asia/Makassar","latitude":-0.966667,"longitude":117.13333},
  {"id":"2c19e358-abc9-42e3-a996-582cb9b734c9","name":"Milan","countryCode":"IT","code":"MIL","timezone":"Europe/Rome","latitude":45.46368,"longitude":9.188171},
  {"id":"24166820-7653-4892-81f9-d825b2543861","name":"Chefornak","countryCode":"US","code":"CYF","timezone":"America/Nome","latitude":60.216667,"longitude":-164.2},
  {"id":"9b06827a-015f-4046-8b85-6c288d085e58","name":"Acarigua","countryCode":"VE","code":"AGV","timezone":"America/Caracas","latitude":9.552222,"longitude":-69.23333},
  {"id":"5e5ab0f2-aa87-4394-b6c6-2eec557b4381","name":"Cape Lisburne","countryCode":"US","code":"LUR","timezone":"America/Nome","latitude":68.87583,"longitude":-166.10695},
  {"id":"e47d3884-967f-4e93-bfdb-03d3182d6cf0","name":"Nesbyen","countryCode":"NO","code":"XUL","timezone":"Europe/Oslo","latitude":60.55833,"longitude":9.10111},
  {"id":"f5b939fa-99ca-4920-9582-7db6127679df","name":"Oshkosh","countryCode":"US","code":"OKS","timezone":"America/Chicago","latitude":41.4,"longitude":-102.35},
  {"id":"7dff0f1d-6fd5-4be5-b5d2-914c2521f5a0","name":"Tiaret","countryCode":"DZ","code":"TID","timezone":"Africa/Algiers","latitude":35.466667,"longitude":1.35},
  {"id":"1bd1e9b1-8822-4c67-94cf-c0e65f0e066c","name":"Araguaina","countryCode":"BR","code":"AUX","timezone":"America/Araguaina","latitude":-7.2,"longitude":-48.2},
  {"id":"8a674774-ba78-4270-b0a8-4c944e674e22","name":"St Francois","countryCode":"GP","code":"SFC","timezone":"America/Guadeloupe","latitude":16.25,"longitude":-61.283333},
  {"id":"329d2273-9278-4fa9-a94e-240802bc8e80","name":"Rutland","countryCode":"US","code":"RUT","timezone":"America/New_York","latitude":43.529446,"longitude":-72.94833},
  {"id":"0aefc1dc-eebb-42c2-915d-21e44336b3dc","name":"Huelva","countryCode":"ES","code":"HEV","timezone":"Europe/Madrid","latitude":37.266666,"longitude":-6.95},
  {"id":"ce629ec4-ad99-47b5-839d-ac54b11fdcae","name":"Shakawe","countryCode":"BW","code":"SWX","timezone":"Africa/Gaborone","latitude":-18.383333,"longitude":21.833332},
  {"id":"396d1630-732a-4209-a868-d87f4d402e36","name":"Medford","countryCode":"US","code":"MFR","timezone":"America/Los_Angeles","latitude":42.369026,"longitude":-122.87312},
  {"id":"cc65d699-cc0f-4d10-8738-15f6766bfc54","name":"Eveleth","countryCode":"US","code":"EVM","timezone":"America/Chicago","latitude":47.426388,"longitude":-92.495834},
  {"id":"71c0e190-7945-41d8-a6d7-3c0287bc5c26","name":"Linz","countryCode":"AT","code":"LNZ","timezone":"Europe/Vienna","latitude":48.23987,"longitude":14.193345},
  {"id":"5c4c397a-07ea-4582-bb6a-d5dc7cedd8dd","name":"Korolevu","countryCode":"FJ","code":"KVU","timezone":"Pacific/Fiji","latitude":-17.766666,"longitude":178},
  {"id":"507fe418-8170-4be4-b7dd-7405d6e993e3","name":"Surigao","countryCode":"PH","code":"SUG","timezone":"Asia/Manila","latitude":9.758889,"longitude":125.479164},
  {"id":"ce1dab72-8c59-4613-9912-7c518a9ba062","name":"Queen Charlotte Island","countryCode":"CA","code":"ZQS","timezone":"America/Vancouver","latitude":53,"longitude":-132},
  {"id":"2ee99040-5353-4584-a606-eb1310b8c6e1","name":"Buta","countryCode":"CD","code":"BZU","timezone":"Africa/Lubumbashi","latitude":2.8,"longitude":24.733334},
  {"id":"6374612e-e4e9-4585-8087-13fc8cdca73f","name":"Skelleftea","countryCode":"SE","code":"SFT","timezone":"Europe/Stockholm","latitude":64.62251,"longitude":21.068548},
  {"id":"cacc148b-9bc5-4f89-8889-d4f7679a392d","name":"Ubari","countryCode":"LY","code":"QUB","timezone":"Africa/Tripoli","latitude":26.6,"longitude":12.766667},
  {"id":"d43e6b1e-d782-4cac-b9a9-c324ddbb3479","name":"Rosella Plains","countryCode":"AU","code":"RLP","timezone":"Australia/Brisbane","latitude":-18,"longitude":145},
  {"id":"b8bba78e-b9a3-4625-b7ac-d6ae3c995bef","name":"Munbil","countryCode":"PG","code":"LNF","timezone":"Pacific/Port_Moresby","latitude":-4.866667,"longitude":141.21666},
  {"id":"02738530-d144-4e40-b022-fbba8954228e","name":"Taiping","countryCode":"MY","code":"TPG","timezone":"Asia/Kuala_Lumpur","latitude":4.85,"longitude":100.73333},
  {"id":"9b589a02-1367-481b-b3d9-8ac80c6c2be6","name":"Odate Noshiro","countryCode":"JP","code":"ONJ","timezone":"Asia/Tokyo","latitude":40.196415,"longitude":140.37383},
  {"id":"696d48b5-d86f-4d27-8c11-b7ca916542b4","name":"Kasungu","countryCode":"MW","code":"KBQ","timezone":"Africa/Blantyre","latitude":-33.466667,"longitude":13.016667},
  {"id":"0c326469-418c-4b6c-bf28-b63905fef87f","name":"Parma","countryCode":"IT","code":"PMF","timezone":"Europe/Rome","latitude":44.48053,"longitude":10.19408},
  {"id":"3b0aec28-6629-4f4d-961f-cde8d2cd0e24","name":"Seal Bay","countryCode":"US","code":"SYB","timezone":"America/Anchorage","latitude":58.166668,"longitude":-152.5},
  {"id":"be84ae34-735b-4a0a-ade9-9bb1ccc692ac","name":"Aumo","countryCode":"PG","code":"AUV","timezone":"Pacific/Port_Moresby","latitude":-5.716667,"longitude":148.43333},
  {"id":"a1fcdcd9-e9aa-4cc8-9599-0bc11d5240f1","name":"Benson","countryCode":"GB","code":"BEX","timezone":"Europe/London","latitude":51.63333,"longitude":-1.083333},
  {"id":"6a9bf900-9fe0-4397-b0c4-dbcbc8f6c031","name":"Port Of Spain","countryCode":"TT","code":"POS","timezone":"America/Port_of_Spain","latitude":10.602089,"longitude":-61.339413},
  {"id":"26e70835-971a-49d9-85f0-bbe2d8ce734b","name":"Zhoushan","countryCode":"CN","code":"HSN","timezone":"Asia/Shanghai","latitude":29.935259,"longitude":122.35691},
  {"id":"81314989-53cd-4c29-a4aa-fd5f389cd94c","name":"Masasi","countryCode":"TZ","code":"XMI","timezone":"Africa/Dar_es_Salaam","latitude":-10.716667,"longitude":38.8},
  {"id":"54640231-3a92-4936-8076-ae6edc91cfad","name":"Capri","countryCode":"IT","code":"PRJ","timezone":"Europe/Rome","latitude":40.55,"longitude":14.233333},
  {"id":"31131cc2-c246-4ba0-b813-186c0c731c7b","name":"Camiguin","countryCode":"PH","code":"CGM","timezone":"Asia/Manila","latitude":9.16667,"longitude":124.71667},
  {"id":"81772f9f-36a9-412a-8989-3d46a0596e0b","name":"Peoria","countryCode":"US","code":"PIA","timezone":"America/Chicago","latitude":40.66643,"longitude":-89.69012},
  {"id":"0452f503-3d28-429c-b2a1-823a55eadf14","name":"Pleiku","countryCode":"VN","code":"PXU","timezone":"Asia/Ho_Chi_Minh","latitude":14.006346,"longitude":108.00896},
  {"id":"5adbaaf8-64d2-4eb5-9148-04fcb144f858","name":"Laverton","countryCode":"AU","code":"LVO","timezone":"Australia/Perth","latitude":-28.633333,"longitude":122.36667},
  {"id":"c9f8e4f8-9183-4292-814e-e7ae46504e67","name":"Wharton","countryCode":"US","code":"WHT","timezone":"America/Chicago","latitude":29.316668,"longitude":-96.1},
  {"id":"dd0b7a63-2256-4042-9763-443ef0fcfdd6","name":"Goundam","countryCode":"ML","code":"GUD","timezone":"Africa/Bamako","latitude":16.3575,"longitude":-3.609722},
  {"id":"a3c47858-59ce-4c5c-b98d-c62808ce39b3","name":"Katherine","countryCode":"AU","code":"KTR","timezone":"Australia/Darwin","latitude":-14.4575,"longitude":132.2714},
  {"id":"62071b3e-811b-4968-b8d9-14bc42c34627","name":"Yule Island","countryCode":"PG","code":"RKU","timezone":"Pacific/Port_Moresby","latitude":-8.816667,"longitude":146.51666},
  {"id":"07e0111e-9be0-4673-9ae6-921d273504f0","name":"Bo","countryCode":"SL","code":"KBS","timezone":"Africa/Freetown","latitude":7.943889,"longitude":-11.761944},
  {"id":"062f4bb4-0eec-430b-9a5f-9fdbbb7c6d28","name":"Elk City","countryCode":"US","code":"ELK","timezone":"America/Chicago","latitude":35.416668,"longitude":-99.416664},
  {"id":"8fd66f80-a6b2-4d3b-b716-f814f803efa2","name":"Cornwall","countryCode":"CA","code":"YCC","timezone":"America/Toronto","latitude":45.1,"longitude":-74.566666},
  {"id":"602700c8-816b-44c3-b758-d4907bd1d382","name":"Dublin","countryCode":"IE","code":"DUB","timezone":"Europe/Dublin","latitude":53.42728,"longitude":-6.24357},
  {"id":"5c4d00c3-0460-4b3b-b385-27ed83b8d18f","name":"Baitadi","countryCode":"NP","code":"BIT","timezone":"Asia/Kathmandu","latitude":29,"longitude":80.5},
  {"id":"c54f1487-bd7d-4a07-99b8-4d03ef20a6b7","name":"Surkhet","countryCode":"NP","code":"SKH","timezone":"Asia/Kathmandu","latitude":28.333332,"longitude":82.50833},
  {"id":"ebb3dc54-788d-4604-8b94-a61e1fe2db97","name":"Shenzhen","countryCode":"CN","code":"SZX","timezone":"Asia/Shanghai","latitude":22.543098,"longitude":114.05787},
  {"id":"f5960b45-65c8-48e8-a9b9-a27730ed77a4","name":"Warwick","countryCode":"AU","code":"WAZ","timezone":"Australia/Brisbane","latitude":-28.15,"longitude":151.95},
  {"id":"1cdb9785-e245-4dfc-a96e-0be312b0e896","name":"The Valley","countryCode":"AI","code":"AXA","timezone":"America/Anguilla","latitude":18.216667,"longitude":-63.066666},
  {"id":"35d52f70-1a46-441f-b1e9-170ccac85144","name":"Asapa","countryCode":"PG","code":"APP","timezone":"Pacific/Port_Moresby","latitude":-8.983333,"longitude":148.13333},
  {"id":"bc5c8e8d-ba9e-4212-be5f-1f0570c84bcd","name":"Port Stanley","countryCode":"FK","code":"PSY","timezone":"Atlantic/Stanley","latitude":-51.7,"longitude":-57.85},
  {"id":"10d9fa98-e993-487a-b786-752817d989cc","name":"Leonora","countryCode":"AU","code":"LNO","timezone":"Australia/Perth","latitude":-28.879345,"longitude":121.316925},
  {"id":"967315e0-13ee-4296-9f0a-d240da08604b","name":"Orapa","countryCode":"BW","code":"ORP","timezone":"Africa/Gaborone","latitude":-21,"longitude":24.5},
  {"id":"6ea6fd57-306b-4659-8a30-ce5afd1348cc","name":"Woodstock","countryCode":"CA","code":"XIP","timezone":"America/Toronto","latitude":43.13011,"longitude":-80.756294},
  {"id":"63fc0725-40c5-459e-ad44-1ef940ddfbbc","name":"Saint Croix","countryCode":"VI","code":"STX","timezone":"America/St_Thomas","latitude":17.74664,"longitude":-64.7032},
  {"id":"92be6dcf-b043-4e1c-951d-44c734222f07","name":"Upavon","countryCode":"GB","code":"UPV","timezone":"Europe/London","latitude":51.3,"longitude":-1.816667},
  {"id":"a27b6b30-2603-4a0d-92fb-29c558acd80c","name":"Valladolid","countryCode":"ES","code":"VLL","timezone":"Europe/Madrid","latitude":41.652943,"longitude":-4.728381},
  {"id":"c1dbebbb-40af-4a85-841a-3146d271f32d","name":"Wanigela","countryCode":"PG","code":"AGL","timezone":"Pacific/Port_Moresby","latitude":-9.340278,"longitude":149.15527},
  {"id":"92472317-b700-4c3e-982a-54e249e24647","name":"Newport","countryCode":"US","code":"ONP","timezone":"America/Los_Angeles","latitude":44.63333,"longitude":-124.05},
  {"id":"62e8fa3b-cf02-42eb-83de-2bad31c08af3","name":"Pu'er","countryCode":"CN","code":"SYM","timezone":"Asia/Shanghai","latitude":22.79657,"longitude":100.96222},
  {"id":"9fa7dbc3-7cb0-434c-9235-572caae47151","name":"Puerto Rico","countryCode":"CO","code":"PCC","timezone":"America/Bogota","latitude":1.9,"longitude":-75.15},
  {"id":"eae03fd2-bb28-4e30-9ec4-d52f4d215dc8","name":"Tumling Tar","countryCode":"NP","code":"TMI","timezone":"Asia/Kathmandu","latitude":27.3,"longitude":87.2},
  {"id":"c59ba508-cae8-4e93-912d-5a588539db67","name":"Anacortes","countryCode":"US","code":"OTS","timezone":"America/Los_Angeles","latitude":48.49917,"longitude":-122.66111},
  {"id":"8a91d6aa-89ab-40dc-8cce-a647c1cfe8b8","name":"Sehwen Sharif","countryCode":"PK","code":"SYW","timezone":"Asia/Karachi","latitude":26.416668,"longitude":67.85},
  {"id":"841c029b-ac92-46a4-b349-ffb6cb0bdb2e","name":"Perm","countryCode":"RU","code":"PEE","timezone":"Asia/Yekaterinburg","latitude":57.920025,"longitude":56.01918},
  {"id":"371503de-dcb4-4283-bfe4-6012166a93cd","name":"Crystal Lake","countryCode":"US","code":"CYE","timezone":"America/New_York","latitude":41.210278,"longitude":-75.83222},
  {"id":"6a591fee-66c6-4d88-b63a-022af2d5fc27","name":"Schenectady","countryCode":"US","code":"SCH","timezone":"America/New_York","latitude":42.814243,"longitude":-73.93957},
  {"id":"bf2f1147-21ea-44e6-abe9-0c445dd9f604","name":"Marble Bar","countryCode":"AU","code":"MBB","timezone":"Australia/Perth","latitude":-21.25,"longitude":119.583336},
  {"id":"13f04087-3bb7-4f3e-94b8-4db93dc1166d","name":"Koolburra","countryCode":"AU","code":"KKP","timezone":"Australia/Brisbane","latitude":-15.583333,"longitude":143.95},
  {"id":"6cbd6eba-bdca-4ba8-8b4e-59caccc53b95","name":"Southern Cross","countryCode":"AU","code":"SQC","timezone":"Australia/Perth","latitude":-31.25,"longitude":119.35},
  {"id":"88ae9e40-e798-4976-94c3-beb4ac1461a5","name":"Baucau","countryCode":"TL","code":"BCH","timezone":"Asia/Dili","latitude":-8.491667,"longitude":126.39972},
  {"id":"dad5d280-a718-4c46-9881-227b2c9de361","name":"Corpus Christi","countryCode":"US","code":"CRP","timezone":"America/Chicago","latitude":27.800583,"longitude":-97.39638},
  {"id":"e01adc85-970d-488b-9e08-af088daaa848","name":"Minna","countryCode":"NG","code":"MXJ","timezone":"Africa/Lagos","latitude":9.616667,"longitude":6.533333},
  {"id":"bd564bfa-c690-48bd-8a60-b2bcd4d9be52","name":"St Marys","countryCode":"CA","code":"XIO","timezone":"America/Toronto","latitude":38.34,"longitude":-85.82},
  {"id":"498007a0-8fe5-4f8d-b972-cf8500a3f3b5","name":"Fderik","countryCode":"MR","code":"FGD","timezone":"Africa/Nouakchott","latitude":22.675,"longitude":-12.731944},
  {"id":"82718271-eae4-4fea-85f0-e0e803bce393","name":"Sambava","countryCode":"MG","code":"SVB","timezone":"Indian/Antananarivo","latitude":-14.276944,"longitude":50.175},
  {"id":"28cf7005-0b0d-4715-8d43-560097c4f5d6","name":"Heide-Buesum","countryCode":"DE","code":"HEI","timezone":"Europe/Berlin","latitude":54.155556,"longitude":8.902778},
  {"id":"31af7e87-72e9-4592-b6d4-36f88ff49d95","name":"Green Islands","countryCode":"PG","code":"GEI","timezone":"Pacific/Port_Moresby","latitude":-4.5,"longitude":154.16667},
  {"id":"788697fd-4604-43d6-8420-5eeca1edf3dd","name":"Gold Beach","countryCode":"US","code":"GOL","timezone":"America/Los_Angeles","latitude":42.416668,"longitude":-124.416664},
  {"id":"a2cfdfc0-5053-4479-b034-76dbc925e746","name":"Awaradam","countryCode":"SR","code":"AAJ","timezone":"America/Paramaribo","latitude":3.9,"longitude":-55.36667},
  {"id":"b08dff71-9c0c-4dd0-9208-f8c5ca6f6fc4","name":"Tongren","countryCode":"CN","code":"TEN","timezone":"Asia/Shanghai","latitude":27.88369,"longitude":109.29902},
  {"id":"82fda36e-245d-4641-9424-ee2363fdb30c","name":"St Georges de l'Oyapock","countryCode":"GF","code":"OYP","timezone":"America/Cayenne","latitude":3.9,"longitude":-51.8},
  {"id":"7ac434b7-c7aa-4e52-a618-d2eacccfbbc3","name":"Antsalova","countryCode":"MG","code":"WAQ","timezone":"Indian/Antananarivo","latitude":-18.7,"longitude":44.61667},
  {"id":"44d4b045-f925-4301-8f3d-d89783070697","name":"Puerto Cabezas","countryCode":"NI","code":"PUZ","timezone":"America/Managua","latitude":14.045278,"longitude":-83.38361},
  {"id":"9a5e01e2-e4a9-4ec3-b85f-75ec0bf8dedc","name":"Ely","countryCode":"US","code":"ELY","timezone":"America/Los_Angeles","latitude":39.301945,"longitude":-114.84194},
  {"id":"cad20b70-79ce-4fa1-9d88-3e08e6b0fb18","name":"La Rochelle","countryCode":"FR","code":"LRH","timezone":"Europe/Paris","latitude":46.180557,"longitude":-1.185833},
  {"id":"81a31e42-ba9e-40f3-830c-88e862f35b21","name":"Kerteh","countryCode":"MY","code":"KTE","timezone":"Asia/Kuala_Lumpur","latitude":4.538333,"longitude":103.42833},
  {"id":"da8a150e-f137-4e36-b006-0f285b6fccda","name":"Fort Sumner","countryCode":"US","code":"FSU","timezone":"America/Denver","latitude":34.466667,"longitude":-104.25},
  {"id":"bf06efa6-ec03-4387-a87e-8de33d1f7a04","name":"Theodore","countryCode":"AU","code":"TDR","timezone":"Australia/Brisbane","latitude":-24.983334,"longitude":150.08333},
  {"id":"67b77b28-9ab4-494e-9d67-a8c63b258e61","name":"Cadillac","countryCode":"US","code":"CAD","timezone":"America/Detroit","latitude":44.275833,"longitude":-85.42222},
  {"id":"ea676236-cedc-4c5d-a572-481ebd1e0bd8","name":"Bassein","countryCode":"MM","code":"BSX","timezone":"Asia/Rangoon","latitude":16.8,"longitude":94.78333},
  {"id":"87425f3d-b42b-41b3-ad9e-1df9c72bd72a","name":"Pawtucket","countryCode":"US","code":"SFZ","timezone":"America/New_York","latitude":41.916668,"longitude":-71.566666},
  {"id":"7c37e318-c4b9-463a-a8e9-b5abb1346624","name":"Dipolog","countryCode":"PH","code":"DPL","timezone":"Asia/Manila","latitude":8.599978,"longitude":123.34418},
  {"id":"1a7dbbcd-8026-4ac3-92fa-2c111ba4a943","name":"Corrientes","countryCode":"AR","code":"CNQ","timezone":"America/Argentina/Cordoba","latitude":-27.449722,"longitude":-58.762222},
  {"id":"95206df3-b7de-4f57-8e67-31b04b388e3c","name":"Shiquanhe","countryCode":"CN","code":"NGQ","timezone":"Asia/Shanghai","latitude":32.103817,"longitude":80.054276},
  {"id":"4eb77344-285b-49ec-ac20-2f114e10c3e1","name":"Kristiansund","countryCode":"NO","code":"KSU","timezone":"Europe/Oslo","latitude":63.11667,"longitude":7.76667},
  {"id":"0dec213a-b7b3-4ec7-ab70-f8d2c33947c4","name":"Matagorda Island","countryCode":"US","code":"MGI","timezone":"America/Chicago","latitude":28.25,"longitude":-96.5},
  {"id":"f720ac70-d76b-4b5d-b8d2-afa6595223d5","name":"Okino Erabu","countryCode":"JP","code":"OKE","timezone":"Asia/Tokyo","latitude":27.431667,"longitude":128.70555},
  {"id":"a3989a8c-e56d-45a5-a964-8d5349df2ed3","name":"Bannu","countryCode":"PK","code":"BNP","timezone":"Asia/Karachi","latitude":33,"longitude":70.666664},
  {"id":"f2d62896-ac2f-44e7-8ab9-872ae2efd238","name":"Neyveli","countryCode":"IN","code":"NVY","timezone":"Asia/Kolkata","latitude":11.6,"longitude":79.433334},
  {"id":"85b294f4-c192-40c3-b048-5fa96661723a","name":"Borba","countryCode":"BR","code":"RBB","timezone":"America/Manaus","latitude":-4.4,"longitude":-59.583332},
  {"id":"13b34d09-453d-4422-b2c5-0deb0d0c20d5","name":"Huslia","countryCode":"US","code":"HSL","timezone":"America/Anchorage","latitude":65.7025,"longitude":-156.375},
  {"id":"60749210-3d71-4709-b385-135fca0bac9e","name":"Temple","countryCode":"US","code":"TPL","timezone":"America/Chicago","latitude":31.150278,"longitude":-97.409164},
  {"id":"c9cc3d2f-df80-4352-aa1b-3caad4532d58","name":"San Salvador","countryCode":"SV","code":"SAL","timezone":"America/El_Salvador","latitude":13.445126,"longitude":-89.05723},
  {"id":"5fd4d9b6-05e4-4301-a813-19da57a9c259","name":"Shonai","countryCode":"JP","code":"SYO","timezone":"Asia/Tokyo","latitude":38.809444,"longitude":139.79056},
  {"id":"a1449528-646e-479d-8c8f-2d385abb5c26","name":"Jamshedpur","countryCode":"IN","code":"IXW","timezone":"Asia/Kolkata","latitude":22.813057,"longitude":86.16889},
  {"id":"9ad0fb4e-ab6f-442a-9042-7a916114df04","name":"Macmillan Pass","countryCode":"CA","code":"XMP","timezone":"America/Whitehorse","latitude":62.86667,"longitude":-135.91667},
  {"id":"45040270-b65b-4c2e-bc5a-fe5e6f681ea7","name":"Nejjo","countryCode":"ET","code":"NEJ","timezone":"Africa/Addis_Ababa","latitude":9.5,"longitude":35.466667},
  {"id":"6a09afdb-6cbe-4d2b-8fb2-d92848d4425c","name":"Bjerka","countryCode":"NO","code":"ZMZ","timezone":"Europe/Oslo","latitude":66.14861,"longitude":13.83639},
  {"id":"9c9fef27-ba4f-4d66-ad9d-a00f5670ff45","name":"Chokwe","countryCode":"MZ","code":"TGS","timezone":"Africa/Maputo","latitude":-24.616667,"longitude":32.416668},
  {"id":"662abbf0-2e03-4c2d-8f0d-e298af0ccd2e","name":"Basingstoke","countryCode":"GB","code":"XQB","timezone":"Europe/London","latitude":51.2667,"longitude":-1.0876},
  {"id":"f3e08386-8051-4e28-b299-9160bb01f1d3","name":"Bermuda","countryCode":"BM","code":"BDA","timezone":"Atlantic/Bermuda","latitude":32.35828,"longitude":-64.68068},
  {"id":"163fb0bc-3446-4b04-9d6e-59c75a8ccede","name":"Coatesville","countryCode":"US","code":"CTH","timezone":"America/New_York","latitude":39.983334,"longitude":-75.833336},
  {"id":"f9e12d6d-1c63-41db-bd40-3250e2b1c8c6","name":"Stroud","countryCode":"US","code":"SUD","timezone":"America/Chicago","latitude":35.75,"longitude":-96.683334},
  {"id":"c0e22d5e-2505-4f1e-8587-5c919ea4cbde","name":"Spanish Wells","countryCode":"BS","code":"SWL","timezone":"America/Nassau","latitude":25.54,"longitude":-76.75},
  {"id":"65bbc7ef-a2ca-4f40-a657-007d150a97e1","name":"Esquimalt","countryCode":"CA","code":"YPF","timezone":"America/Vancouver","latitude":48.433334,"longitude":-123.4},
  {"id":"08413a9f-36c6-4f20-b5e6-a5fff894b6df","name":"Poplar Bluff","countryCode":"US","code":"POF","timezone":"America/Chicago","latitude":36.71111,"longitude":-90.31389},
  {"id":"891218bd-5be2-4355-ad24-79dc0178a8fc","name":"Siocon","countryCode":"PH","code":"XSO","timezone":"Asia/Manila","latitude":7.7,"longitude":122.15},
  {"id":"1156c9a7-3e7f-427f-9e2f-e9db6d6b2528","name":"Ua Huka","countryCode":"PF","code":"UAH","timezone":"Pacific/Marquesas","latitude":-8.933333,"longitude":-139.55},
  {"id":"0e15c439-b061-4de2-b9e8-7bef99df3080","name":"Kiana","countryCode":"US","code":"IAN","timezone":"America/Anchorage","latitude":66.975555,"longitude":-160.43056},
  {"id":"e45688c9-86f5-4bf9-9f39-f8eca4aa77c3","name":"Torrington","countryCode":"US","code":"TOR","timezone":"America/Denver","latitude":42.066666,"longitude":-104.183334},
  {"id":"fc46a026-8971-40bc-b146-885ad9b70a54","name":"Guamal","countryCode":"CO","code":"GAA","timezone":"America/Bogota","latitude":9.15,"longitude":-74.23333},
  {"id":"d04ea35d-5e02-4992-b656-da58a69bcdd9","name":"Kangding","countryCode":"CN","code":"KGT","timezone":"Asia/Shanghai","latitude":30.1575,"longitude":101.73472},
  {"id":"cd9e0981-f971-4dee-b42a-d168b37e38b0","name":"Dansville","countryCode":"US","code":"DSV","timezone":"America/New_York","latitude":42.566666,"longitude":-77.7},
  {"id":"3fedc7cf-8625-4800-906b-cde1522e8198","name":"Dakhla","countryCode":"MA","code":"VIL","timezone":"Africa/Casablanca","latitude":23.713333,"longitude":-15.935},
  {"id":"b30c7aa3-74a3-48b2-ac31-bd5f73eedd0e","name":"Danbury","countryCode":"US","code":"DXR","timezone":"America/New_York","latitude":41.38333,"longitude":-73.45},
  {"id":"a6a06f50-3605-4776-92ca-ba3ca9f172f2","name":"Cinder River","countryCode":"US","code":"RCP","timezone":"America/Anchorage","latitude":57.083057,"longitude":-157.80556},
  {"id":"4c7b2a7e-fa5b-4d78-b2ed-56dcb3de882a","name":"Garasa","countryCode":"PG","code":"GRL","timezone":"Pacific/Port_Moresby","latitude":-7.95,"longitude":147.18333},
  {"id":"da06e147-57ee-4051-80dc-4ffe02f15b81","name":"Cluj","countryCode":"RO","code":"CLJ","timezone":"Europe/Bucharest","latitude":46.782063,"longitude":23.687014},
  {"id":"632dedf6-4aac-401b-9b7f-3f09c6ab6194","name":"Wasilla","countryCode":"US","code":"WWA","timezone":"America/Anchorage","latitude":61.583332,"longitude":-149.43333},
  {"id":"9b640a4d-3e66-40dd-bb03-92785e407555","name":"Cahors","countryCode":"FR","code":"ZAO","timezone":"Europe/Paris","latitude":44.45,"longitude":1.45},
  {"id":"305515f3-cf66-4e95-bd52-32695de5af69","name":"Tortoli","countryCode":"IT","code":"TTB","timezone":"Europe/Rome","latitude":39.916668,"longitude":9.683333},
  {"id":"2fe467f2-fa78-4319-8680-b76666d41903","name":"Long Semado","countryCode":"MY","code":"LSM","timezone":"Asia/Kuching","latitude":4.002778,"longitude":118.00833},
  {"id":"d82404e0-5364-43a3-83bf-8b0bbd629ee9","name":"Raufoss","countryCode":"NO","code":"ZMQ","timezone":"Europe/Oslo","latitude":60.71667,"longitude":10.61667},
  {"id":"62d91445-52db-40ec-9bfa-6866e77e7bf9","name":"Muscatine","countryCode":"US","code":"MUT","timezone":"America/Chicago","latitude":41.36667,"longitude":-91.145},
  {"id":"99f0ca4d-760b-4080-8ffa-8248c74a7e83","name":"Montreux","countryCode":"CH","code":"ZJP","timezone":"Europe/Zurich","latitude":46.43333,"longitude":6.91667},
  {"id":"d35fcbfd-e3b7-46db-80f9-34ff5dc71507","name":"Olavarria","countryCode":"AR","code":"OVR","timezone":"America/Argentina/Buenos_Aires","latitude":-36.88889,"longitude":-60.22778},
  {"id":"0f570c33-a727-4536-be18-f5580a820b85","name":"Graasten","countryCode":"DK","code":"XRA","timezone":"Europe/Copenhagen","latitude":54.92111,"longitude":9.59444},
  {"id":"9989d58d-2db4-430d-b188-04c6b31237db","name":"Oodnadatta","countryCode":"AU","code":"ODD","timezone":"Australia/Adelaide","latitude":-27.550278,"longitude":135.45},
  {"id":"07dd3ee7-5db9-445f-a4ef-e2ed034886bf","name":"Ust-Ilimsk","countryCode":"RU","code":"UIK","timezone":"Asia/Irkutsk","latitude":58.13333,"longitude":102.55},
  {"id":"b3d792c2-c608-4c9a-b8bd-f5a29a745fac","name":"Daly Waters","countryCode":"AU","code":"DYW","timezone":"Australia/Darwin","latitude":-16.25,"longitude":133.4},
  {"id":"49d1eca9-57f2-4d61-8a08-3cfe47e12e42","name":"Karaj","countryCode":"IR","code":"PYK","timezone":"Asia/Tehran","latitude":35.81667,"longitude":50.96667},
  {"id":"04d1f7e3-0573-4541-9c41-c25de93955ba","name":"Nanuque","countryCode":"BR","code":"NNU","timezone":"America/Sao_Paulo","latitude":-17.816668,"longitude":-40.333332},
  {"id":"db238aff-1e38-4266-92ac-89c7d4cb6f10","name":"Puerto Boyaca","countryCode":"CO","code":"PYA","timezone":"America/Bogota","latitude":5.966667,"longitude":-74.6},
  {"id":"cb6b58bc-bbed-45a2-b852-2bfc97e4e242","name":"Walker's Cay","countryCode":"BS","code":"WKR","timezone":"America/Nassau","latitude":27.266666,"longitude":-78.4},
  {"id":"ea65e6d6-2bf6-4e90-affa-644def76409c","name":"Alghero","countryCode":"IT","code":"AHO","timezone":"Europe/Rome","latitude":40.630405,"longitude":8.295891},
  {"id":"cd0fa028-7a4a-4f38-9935-eba746bbe58b","name":"Porbandar","countryCode":"IN","code":"PBD","timezone":"Asia/Kolkata","latitude":21.647223,"longitude":69.656944},
  {"id":"3fafa04e-a2da-4932-84e3-a9f4b7aafcb3","name":"Nukus","countryCode":"UZ","code":"NCU","timezone":"Asia/Samarkand","latitude":42.483334,"longitude":59.63333},
  {"id":"4dafc4c3-3247-423a-a163-0c7734c51b55","name":"Pine Mountain","countryCode":"US","code":"PIM","timezone":"America/New_York","latitude":32.86667,"longitude":-84.833336},
  {"id":"f6128e05-a242-4b66-ba0c-e4e1b7e93168","name":"Sullivan Bay","countryCode":"CA","code":"YTG","timezone":"America/Vancouver","latitude":50.88333,"longitude":-126.8},
  {"id":"9d51a402-a781-4035-8695-59f22f5e1fdf","name":"Jingdezhen","countryCode":"CN","code":"JDZ","timezone":"Asia/Shanghai","latitude":29.33549,"longitude":117.17879},
  {"id":"3ac6d61f-962a-40e1-9ba8-b441805e109a","name":"Uppsala","countryCode":"SE","code":"QYX","timezone":"Europe/Stockholm","latitude":59.858612,"longitude":17.64611},
  {"id":"0f739db7-e9e7-4428-9dd8-81c3ed6ba641","name":"Buchanan","countryCode":"LR","code":"UCN","timezone":"Africa/Monrovia","latitude":5.95,"longitude":-10.033333},
  {"id":"d2378f5d-7307-4f17-a9aa-fd4dd87b47b6","name":"Boa Vista","countryCode":"CV","code":"BVC","timezone":"Atlantic/Cape_Verde","latitude":16.083332,"longitude":-22.833332},
  {"id":"f93e3973-b10e-43d9-899b-a77af5c009a6","name":"Parsons","countryCode":"US","code":"PPF","timezone":"America/Chicago","latitude":37.332222,"longitude":-95.50861},
  {"id":"90db8362-bfcc-41f0-af3a-79d3ba802b6c","name":"Guanghua","countryCode":"CN","code":"LHK","timezone":"Asia/Shanghai","latitude":32.266666,"longitude":111.63333},
  {"id":"c829b98c-aa8d-4587-9eac-cd5922b66c6c","name":"Newport News","countryCode":"US","code":"PHF","timezone":"America/New_York","latitude":36.97876,"longitude":-76.428},